!AIVDM,1,1,1,,13aI8e?P00PGpU:NR6s00?vT2000,0,0*1C
!AIVDM,1,1,2,,13`kFLmP0LPHKsVNUD?RegvV2000,0,0*6F
!AIVDM,1,1,3,,13aFh>?0000IvntNSnm8k9BV0000,0,0*41
!AIVDM,1,1,4,,13cDbl00200J@D6NfEDal7o20000,0,0*60
!AIVDM,1,1,5,,13aIi0gP00PHkIdNKQM9ggvV2000,0,0*56
!AIVDM,1,1,6,,13aFfRPP00PIuAjNF3aP0?vV2000,0,0*3C
!AIVDM,1,1,7,,13aGD7pP0?0Ho>0NKnSR4OvN0000,0,0*04
!AIVDM,1,1,8,,13`t=0001BPHHnLNQ>Qbb8VV2000,0,0*13
!AIVDM,1,1,9,,13b<Q`700Q0J72HNWpSSIBbR0000,0,0*2C
!AIVDM,1,1,0,,13bh6v70000HjCTNKOC`O4p`0000,0,0*03
$GPGGA,195719,5310.8115,N,00525.7025,E,1,00,1.10,-2,M,,M,,*57
$GPGLL,5310.8115,N,00525.7025,E,195719,A,A*4D
$GPGSA,A,3,,,,,,,,,,,,,2.10,1.10,1.70*07
$GPGSV,3,1,10,02,10,039,,05,15,069,,10,05,017,,13,05,348,*77
$GPGSV,3,2,10,16,13,294,,21,36,173,,23,11,317,,25,38,118,*70
$GPGSV,3,3,10,29,69,069,,31,54,240,*76
$GPRMC,195719,A,5310.8115,N,00525.7025,E,0.0,0.0,160414,0.7,E,A*10
$GPVTG,0.0,T,359.3,M,0.0,N,0.0,K,A*2F
$GPZDA,195719,16,04,14,-02,00*63
$GPAAM,,,,N,*38
$GPAPB,,,,,,,,,,,,,,,N*26
$GPBOD,,T,,M,,*47
$GPRMB,,,,,,,,,,,,,,N*04
$GPXTE,,,,,N,N*5E
$SDDBT,1.8,f,0.5,M,0.3,F*09
$SDDPT,0.5,0.5,*7B
$SDMTW,12.6,C*01
$SDVLW,$SDVLW,,N,322.0,N,$SDVLW,$SDVLW,,N,322.0,N,2328.9,N,$SDVLW,$SDVLW,,N,322.0,N,$SDVLW,$SDVLW,,N,322.0,N,2328.9,N,2315.4,N*59
$SDVHW,182.4,T,181.7,M,0.0,N,0.0,K*42
$SDHDG,181.7,,,0.6,E*3C
$WIMWD,125.3,T,124.6,M,5.6,N,2.9,M*56
$WIMWV,297.6,R,5.6,N,A*2A
$WIMWV,297.5,T,5.6,N,A*2F
$IIXDR,C,C,10.7,C,AIRTEMP,A,0.5,D,HEEL,A,-1.-3,D,TRIM,P,1.026,B,BARO,A,A,-4.-3,D,RUDDER*18
$SDHDG,181.7,,,0.6,E*3C
!AIVDM,1,1,1,,34hAgR5000PHeGDNFqG96J`V2000,0,0*65
$SDHDG,181.7,,,0.6,E*3C
!AIVDM,1,1,2,,13aGFvwP00PHi3FNKCN00?v`2000,0,0*5D
!AIVDM,1,1,3,,14h?6j003B0G:kfNVlDRMQt`0000,0,0*1D
$SDHDG,181.7,,,0.6,E*3C
!AIVDM,1,1,4,,13`va@0P000HpJBNKnV9>gv`0000,0,0*51
!AIVDM,1,1,5,,33`qM>8P0aPGARhNSJQ2?j0`2000,0,0*4A
$SDHDG,181.7,,,0.6,E*3C
!AIVDM,1,1,6,,13aL?>HP00PHj5FNKAH00?v`2000,0,0*5D
!AIVDM,1,1,7,,13:krn000o0HNehNH7>a>WHT0000,0,0*7C
$SDHDG,181.7,,,0.6,E*3C
!AIVDM,1,1,8,,13b?AJ7P0Q0J12lNV6c59wvV0000,0,0*12
$SDHDG,181.7,,,0.6,E*3C
!AIVDM,1,1,9,,13`uO27P0KPHJrJNL4r3sCDb2000,0,0*3D
$SDHDG,181.7,,,0.6,E*3C
!AIVDM,1,1,0,,E>jN6<0W6@1WPab3bPa2@LtP0000:uoH?9Ur@00000000?,4,4*76
$SDHDG,181.7,,,0.6,E*3C
!AIVDM,1,1,1,,E>jN6<0W6@1WPab3bPa2@LtP0000:uoH?9Ur@00000000?,4,4*77
$GPGGA,195720,5310.8115,N,00525.7025,E,1,00,1.10,-2,M,,M,,*5D
$GPGLL,5310.8115,N,00525.7025,E,195720,A,A*47
$GPGSA,A,3,,,,,,,,,,,,,2.10,1.10,1.70*07
$GPGSV,3,1,10,02,10,039,,05,15,069,,10,05,017,,13,05,348,*77
$GPGSV,3,2,10,16,13,294,,21,36,173,,23,11,317,,25,38,118,*70
$GPGSV,3,3,10,29,69,069,,31,54,240,*76
$SDHDG,181.8,,,0.6,E*33
$GPRMC,195720,A,5310.8115,N,00525.7025,E,0.0,0.0,160414,0.7,E,A*1A
$GPVTG,0.0,T,359.3,M,0.0,N,0.0,K,A*2F
!AIVDM,1,1,2,,13aGuu@P00PHq0:NKutP0?v`2000,0,0*51
$GPZDA,195720,16,04,14,-02,00*69
$GPAAM,,,,N,*38
$GPAPB,,,,,,,,,,,,,,,N*26
$GPBOD,,T,,M,,*47
$GPRMB,,,,,,,,,,,,,,N*04
$GPXTE,,,,,N,N*5E
$SDDBT,1.8,f,0.5,M,0.3,F*09
$SDDPT,0.5,0.5,*7B
$SDMTW,12.6,C*01
$SDVLW,$SDVLW,,N,322.0,N,$SDVLW,$SDVLW,,N,322.0,N,2328.9,N,$SDVLW,$SDVLW,,N,322.0,N,$SDVLW,$SDVLW,,N,322.0,N,2328.9,N,2315.4,N*59
$SDVHW,182.5,T,181.8,M,0.0,N,0.0,K*4C
$WIMWD,125.2,T,124.6,M,5.6,N,2.9,M*57
$WIMWV,297.2,R,5.6,N,A*2E
$WIMWV,296.3,T,5.6,N,A*28
$IIXDR,C,C,10.7,C,AIRTEMP,A,0.5,D,HEEL,A,-1.-3,D,TRIM,P,1.026,B,BARO,A,A,-4.-3,D,RUDDER*18
$SDHDG,181.8,,,0.6,E*33
!AIVDM,1,1,3,,13aKWv?P000HjUBNK?u:p?vb0000,0,0*05
$SDHDG,181.8,,,0.6,E*33
!AIVDM,1,1,4,,13aDo:@P00PJ2h8NEeI7=gv`2000,0,0*0B
!AIVDM,1,1,5,,13aDA0PP00PHn3`NKRFP0?v`2000,0,0*67
$SDHDG,181.8,,,0.6,E*33
$SDHDG,181.8,,,0.6,E*33
$SDHDG,181.8,,,0.6,E*33
$SDHDG,181.8,,,0.6,E*33
$SDHDG,181.8,,,0.6,E*33
!AIVDM,1,1,6,,13bE@>7P0O0JQUDN``K3=?wp0000,0,0*07
!AIVDM,1,1,7,,13aBMu@P00PJK4TNEh400?vb2000,0,0*0A
!AIVDM,1,1,8,,13aKVPHP00PHj5fNK8G00?vb2000,0,0*07
$SDHDG,181.8,,,0.6,E*33
!AIVDM,1,1,9,,13aJH>OP000GpVhNR0::;wvd0000,0,0*49
!AIVDM,1,1,0,,13aGFgSP00PGp32NQtWbvgvd2000,0,0*74
$SDHDG,181.8,,,0.6,E*33
$GPGGA,195721,5310.8115,N,00525.7025,E,1,00,1.10,-2,M,,M,,*5C
$GPGLL,5310.8115,N,00525.7025,E,195721,A,A*46
!AIVDM,1,1,1,,13bQtf?P000Hf3RNFs?akgvd0000,0,0*42
$GPGSA,A,3,,,,,,,,,,,,,2.10,1.10,1.70*07
$GPGSV,3,1,10,02,10,039,,05,15,069,,10,05,017,,13,05,348,*77
$GPGSV,3,2,10,16,13,294,,21,36,173,,23,11,317,,25,38,118,*70
$GPGSV,3,3,10,29,69,069,,31,54,240,*76
$GPRMC,195721,A,5310.8115,N,00525.7025,E,0.0,0.0,160414,0.7,E,A*1B
$GPVTG,0.0,T,359.3,M,0.0,N,0.0,K,A*2F
$GPZDA,195721,16,04,14,-02,00*68
$GPAAM,,,,N,*38
$GPAPB,,,,,,,,,,,,,,,N*26
$GPBOD,,T,,M,,*47
!AIVDM,1,1,2,,33aGFRwP000HnkdNKlB3qwvd0000,0,0*49
$SDHDG,181.8,,,0.6,E*33
$GPRMB,,,,,,,,,,,,,,N*04
$GPXTE,,,,,N,N*5E
$SDDBT,1.8,f,0.5,M,0.3,F*09
$SDDPT,0.5,0.5,*7B
$SDMTW,12.5,C*02
$SDVLW,$SDVLW,,N,322.0,N,$SDVLW,$SDVLW,,N,322.0,N,2328.9,N,$SDVLW,$SDVLW,,N,322.0,N,$SDVLW,$SDVLW,,N,322.0,N,2328.9,N,2315.4,N*59
$SDVHW,182.5,T,181.8,M,0.0,N,0.0,K*4C
$WIMWD,125.2,T,124.6,M,4.6,N,2.4,M*5B
$WIMWV,298.0,R,4.6,N,A*22
$WIMWV,300.1,T,4.6,N,A*25
$IIXDR,C,C,10.7,C,AIRTEMP,A,0.5,D,HEEL,A,-1.-3,D,TRIM,P,1.026,B,BARO,A,A,-4.-3,D,RUDDER*18
!AIVDM,1,1,3,,13aMB<?016PGdnjNJq5R21LV2000,0,0*6E
$SDHDG,181.7,,,0.6,E*3C
!AIVDM,1,1,4,,13aGDjCP00PHiQdNK9d;fgvV2000,0,0*52
!AIVDM,1,1,5,,13aDGp00000Gpq<NR;>cT8Fd0000,0,0*20
!AIVDM,1,1,6,,15Q:RP002g0FSrtN`ucacojb0000,0,0*0B
$SDHDG,181.7,,,0.6,E*3C
!AIVDM,1,1,7,,13btD>00000GqJ:NR>BPSFbb0000,0,0*71
$SDHDG,181.7,,,0.6,E*3C
$SDHDG,181.7,,,0.6,E*3C
!AIVDM,1,1,8,,13aGuE@P000JKgvNTiicROvf0000,0,0*13
$SDHDG,181.7,,,0.6,E*3C
!AIVDM,1,1,9,,13aGFROP000Ho<hNKmR;9?vf0000,0,0*39
$SDHDG,181.7,,,0.6,E*3C
!AIVDM,1,1,0,,13aDBD0P00PHj0RNKB?00?vd2000,0,0*4D
!AIVDM,1,1,1,,102EFW3P000Hk`JNK`E`?Ovf0000,0,0*57
$SDHDG,181.7,,,0.6,E*3C
!AIVDM,1,1,2,,13`e=?HP00PHmI@NKBT00?vd2000,0,0*14
$SDHDG,181.7,,,0.6,E*3C
!AIVDM,1,1,3,,13aFgJ?P00PHf8@NFsWP0?vd2000,0,0*4A
!AIVDM,1,1,4,,13`qM>8P0bPGATHNSJURK22f2000,0,0*20
$GPGGA,195722,5310.8115,N,00525.7025,E,1,00,1.10,-2,M,,M,,*5F
!AIVDM,1,1,5,,13c0aT00000HJJ4NGeMa5Jhf0000,0,0*57
$SDHDG,181.7,,,0.6,E*3C
$GPGLL,5310.8115,N,00525.7025,E,195722,A,A*45
$GPGSA,A,3,,,,,,,,,,,,,2.10,1.10,1.70*07
$GPGSV,3,1,10,02,10,039,,05,15,069,,10,05,017,,13,05,348,*77
$GPGSV,3,2,10,16,13,294,,21,36,173,,23,11,317,,25,38,118,*70
$GPGSV,3,3,10,29,69,069,,31,54,240,*76
$GPRMC,195722,A,5310.8115,N,00525.7025,E,0.1,0.0,160414,0.7,E,A*19
$GPVTG,0.0,T,359.3,M,0.1,N,0.2,K,A*2C
$GPZDA,195722,16,04,14,-02,00*6B
$GPAAM,,,,N,*38
$GPAPB,,,,,,,,,,,,,,,N*26
$GPBOD,,T,,M,,*47
!AIVDM,1,1,6,,13aFgphP1EPHENDNC5h77gvf2000,0,0*41
$GPRMB,,,,,,,,,,,,,,N*04
$GPXTE,,,,,N,N*5E
$SDDBT,1.8,f,0.5,M,0.3,F*09
$SDHDG,181.7,,,0.6,E*3C
$SDDPT,0.5,0.5,*7B
$SDMTW,12.5,C*02
!AIVDM,1,1,7,,33aIggEP00PKoN@NLHaP0?vd2000,0,0*6F
$SDVLW,$SDVLW,,N,322.0,N,$SDVLW,$SDVLW,,N,322.0,N,2328.9,N,$SDVLW,$SDVLW,,N,322.0,N,$SDVLW,$SDVLW,,N,322.0,N,2328.9,N,2315.4,N*59
$SDVHW,182.4,T,181.7,M,0.0,N,0.0,K*42
$WIMWD,125.2,T,124.6,M,4.6,N,2.4,M*5B
$WIMWV,296.4,R,4.6,N,A*28
$WIMWV,296.4,T,4.6,N,A*2E
!AIVDM,1,1,8,,13brCD00000HtKVNKFc3@CFf0000,0,0*77
$IIXDR,C,C,10.7,C,AIRTEMP,A,0.5,D,HEEL,A,-1.-3,D,TRIM,P,1.026,B,BARO,A,A,-4.-3,D,RUDDER*18
$SDHDG,181.7,,,0.6,E*3C
!AIVDM,1,1,9,,13IOOb002<0HKlHNcWp9pWnb0000,0,0*6A
$SDHDG,181.7,,,0.6,E*3C
!AIVDM,1,1,0,,16LWib003@PEom4NSeRROj0d2000,0,0*07
$SDHDG,181.7,,,0.6,E*3C
$SDHDG,181.7,,,0.6,E*3C
$SDHDG,181.7,,,0.6,E*3C
$SDHDG,181.7,,,0.6,E*3C
$SDHDG,181.7,,,0.6,E*3C
!AIVDM,1,1,1,,13P<QQ@0000Hdg2NFpPPNrPf0000,0,0*6F
$SDHDG,181.7,,,0.6,E*3C
!AIVDM,1,1,2,,13aR>V0000PHifPNK;;bmr:h2000,0,0*7F
$GPGGA,195723,5310.8115,N,00525.7024,E,1,00,1.10,-2,M,,M,,*5F
$GPGLL,5310.8115,N,00525.7024,E,195723,A,A*45
$GPGSA,A,3,,,,,,,,,,,,,2.10,1.10,1.70*07
$GPGSV,3,1,10,02,10,039,,05,15,069,,10,05,017,,13,05,348,*77
$GPGSV,3,2,10,16,13,294,,21,36,173,,23,11,317,,25,38,118,*70
$GPGSV,3,3,10,29,69,069,,31,54,240,*76
!AIVDM,1,1,3,,13aGCN8P00PHj88NKBA;<Ovh2000,0,0*29
$SDHDG,181.7,,,0.6,E*3C
$GPRMC,195723,A,5310.8115,N,00525.7024,E,0.1,0.0,160414,0.7,E,A*19
$GPVTG,0.0,T,359.3,M,0.1,N,0.2,K,A*2C
$GPZDA,195723,16,04,14,-02,00*6A
!AIVDM,1,1,4,,13aBLqgP00PHpR@NKQU00?vf2000,0,0*32
$GPAAM,,,,N,*38
$GPAPB,,,,,,,,,,,,,,,N*26
$GPBOD,,T,,M,,*47
$GPRMB,,,,,,,,,,,,,,N*04
$GPXTE,,,,,N,N*5E
$SDDBT,1.9,f,0.5,M,0.3,F*08
$SDDPT,0.5,0.5,*7B
$SDMTW,12.6,C*01
$SDVLW,$SDVLW,,N,322.0,N,$SDVLW,$SDVLW,,N,322.0,N,2328.9,N,$SDVLW,$SDVLW,,N,322.0,N,$SDVLW,$SDVLW,,N,322.0,N,2328.9,N,2315.4,N*59
!AIVDM,1,1,5,,13aEQuOP00PHiuvNKCM00?vf2000,0,0*07
$SDVHW,182.4,T,181.7,M,0.0,N,0.0,K*42
!AIVDM,1,1,6,,33aGti@00UPJVm0NKat:>7tf2000,0,0*41
$SDHDG,181.7,,,0.6,E*3C
$WIMWD,125.1,T,124.5,M,4.6,N,2.4,M*5B
$WIMWV,299.4,R,4.6,N,A*27
$WIMWV,298.5,T,4.6,N,A*21
$IIXDR,C,C,10.7,C,AIRTEMP,A,0.5,D,HEEL,A,-1.-3,D,TRIM,P,1.026,B,BARO,A,A,-4.-3,D,RUDDER*18
!AIVDM,1,1,7,,13aph000000GrCpNGNS0M5Nh0000,0,0*4B
!AIVDM,1,1,8,,13P;h8h12ePGa=tNc8`9rGrb2000,0,0*20
$SDHDG,181.7,,,0.6,E*3C
!AIVDM,1,1,9,,13aIi<0P00PJKOtNTjWP0?vh2000,0,0*53
!AIVDM,1,1,0,,13aL>vwP00PIMt<NKaIP0?vh2000,0,0*79
$SDHDG,181.7,,,0.6,E*3C
!AIVDM,1,1,1,,13u7M`002B0F03`NbO>0dPHf0000,0,0*35
!AIVDM,1,1,2,,13b`Bv5P1GPHU8pNH`S17gvh2000,0,0*23
$SDHDG,181.7,,,0.6,E*3C
$SDHDG,181.7,,,0.6,E*3C
!AIVDM,1,1,3,,33aN2dU0000HnO0NKeK=`Qff0000,0,0*1A
$SDHDG,181.7,,,0.6,E*3C
$SDHDG,181.7,,,0.6,E*3C
!AIVDM,1,1,4,,33bb0F?00C0GiS>NTGDbGH:j0000,0,0*12
$SDHDG,181.7,,,0.6,E*3C
!AIVDM,1,1,5,,13b=DJ0P00PGp@8NQuoar?vj2000,0,0*55
!AIVDM,1,1,6,,13aI;8gP00PHf16NFt500?vh2000,0,0*40
$SDHDG,181.7,,,0.6,E*3C
$GPGGA,195724,5310.8115,N,00525.7024,E,1,00,1.10,-2,M,,M,,*58
$GPGLL,5310.8115,N,00525.7024,E,195724,A,A*42
$GPGSA,A,3,,,,,,,,,,,,,2.10,1.10,1.70*07
$GPGSV,3,1,10,02,10,039,,05,15,069,,10,05,017,,13,05,348,*77
$GPGSV,3,2,10,16,13,294,,21,36,173,,23,11,317,,25,38,118,*70
$GPGSV,3,3,10,29,69,069,,31,54,240,*76
$GPRMC,195724,A,5310.8115,N,00525.7024,E,0.1,0.0,160414,0.7,E,A*1E
$SDHDG,181.7,,,0.6,E*3C
$GPVTG,0.0,T,359.3,M,0.1,N,0.2,K,A*2C
!AIVDM,1,1,7,,13aI9j8P00PHit@NKG:00?vh2000,0,0*43
$GPZDA,195724,16,04,14,-02,00*6D
$GPAAM,,,,N,*38
$GPAPB,,,,,,,,,,,,,,,N*26
$GPBOD,,T,,M,,*47
$GPRMB,,,,,,,,,,,,,,N*04
$GPXTE,,,,,N,N*5E
$SDDBT,1.9,f,0.5,M,0.3,F*08
$SDDPT,0.5,0.5,*7B
!AIVDM,1,1,8,,33`uO27P0KPHJtFNL4oT4CHj2000,0,0*0D
$SDMTW,12.6,C*01
$SDVLW,$SDVLW,,N,322.0,N,$SDVLW,$SDVLW,,N,322.0,N,2328.9,N,$SDVLW,$SDVLW,,N,322.0,N,$SDVLW,$SDVLW,,N,322.0,N,2328.9,N,2315.4,N*59
$SDVHW,182.4,T,181.7,M,0.0,N,0.0,K*42
$WIMWD,125.1,T,124.5,M,4.6,N,2.4,M*5B
!AIVDM,1,1,9,,13aGtCgP00PHi0@NK@eP0?vh2000,0,0*04
$WIMWV,299.3,R,4.6,N,A*20
$WIMWV,298.7,T,4.6,N,A*23
$IIXDR,C,C,10.7,C,AIRTEMP,A,0.5,D,HEEL,A,-1.-3,D,TRIM,P,1.026,B,BARO,A,A,-4.-3,D,RUDDER*18
$SDHDG,181.7,,,0.6,E*3C
$SDHDG,181.7,,,0.6,E*3C
$SDHDG,181.7,,,0.6,E*3C
!AIVDM,1,1,0,,13`rcF?P000HRkTN@b3P0?vf0000,0,0*14
$SDHDG,181.7,,,0.6,E*3C
!AIVDM,1,1,1,,13aB:Hh000PHjE0NKJi69irh2000,0,0*1E
$SDHDG,181.7,,,0.6,E*3C
!AIVDM,1,1,2,,E02E340W6@1WPab3bPa200000000:uoH?9Ur@00000000?,4,4*0C
!AIVDM,1,1,3,,13aL<SPP00PJG<NNKufP0?vj2000,0,0*70
$SDHDG,181.7,,,0.6,E*3C
!AIVDM,1,1,4,,33`qM>8P0cPGAUPNSJa2LR8l2000,0,0*09
$SDHDG,181.7,,,0.6,E*3C
$SDHDG,181.7,,,0.6,E*3C
!AIVDM,1,1,5,,B3`g`a@0086:A7WUfrp03wP00000,0,0*49
$GPGGA,195725,5310.8114,N,00525.7024,E,1,00,1.10,-2,M,,M,,*58
$SDHDG,181.8,,,0.6,E*33
!AIVDM,1,1,6,,33aGua?P00PHfELNFrr00?vj2000,0,0*4E
$GPGLL,5310.8114,N,00525.7024,E,195725,A,A*42
$GPGSA,A,3,,,,,,,,,,,,,2.10,1.10,1.70*07
$GPGSV,3,1,10,02,10,039,,05,15,069,,10,05,017,,13,05,348,*77
$GPGSV,3,2,10,16,13,294,,21,36,173,,23,11,317,,25,38,118,*70
$GPGSV,3,3,10,29,69,069,,31,54,240,*76
!AIVDM,1,1,7,,13aDr68P00PHj4:NKAI00?vj2000,0,0*17
$GPRMC,195725,A,5310.8114,N,00525.7024,E,0.1,0.0,160414,0.7,E,A*1E
$GPVTG,0.0,T,359.3,M,0.1,N,0.2,K,A*2C
$GPZDA,195725,16,04,14,-02,00*6C
$GPAAM,,,,N,*38
$GPAPB,,,,,,,,,,,,,,,N*26
$GPBOD,,T,,M,,*47
$GPRMB,,,,,,,,,,,,,,N*04
$GPXTE,,,,,N,N*5E
$SDHDG,181.8,,,0.6,E*33
!AIVDM,1,1,8,,E02E340W6@1WPab3bPa200000000:uoH?9Ur@00000000?,4,4*06
$SDDBT,1.8,f,0.5,M,0.3,F*09
$SDDPT,0.5,0.5,*7B
$SDMTW,12.6,C*01
$SDVLW,$SDVLW,,N,322.0,N,$SDVLW,$SDVLW,,N,322.0,N,2328.9,N,$SDVLW,$SDVLW,,N,322.0,N,$SDVLW,$SDVLW,,N,322.0,N,2328.9,N,2315.4,N*59
!AIVDM,1,1,9,,14h?6j003B0G;48NVlu2M1tl0000,0,0*2A
$SDVHW,182.5,T,181.8,M,0.0,N,0.0,K*4C
$WIMWD,125.2,T,124.5,M,4.6,N,2.4,M*58
$WIMWV,300.6,R,4.6,N,A*24
$WIMWV,299.6,T,4.6,N,A*23
$IIXDR,C,C,10.7,C,AIRTEMP,A,0.5,D,HEEL,A,-1.-3,D,TRIM,P,1.026,B,BARO,A,A,-4.-3,D,RUDDER*18
$SDHDG,181.8,,,0.6,E*33
$SDHDG,181.8,,,0.6,E*33
$SDHDG,181.8,,,0.6,E*33
$SDHDG,181.8,,,0.6,E*33
!AIVDM,1,1,0,,13aFfb0P00PJgPtNFp500?vl2000,0,0*39
$SDHDG,181.8,,,0.6,E*33
$SDHDG,181.8,,,0.6,E*33
!AIVDM,1,1,1,,13a?OH?00OPH>WbNM2:5>lDn2000,0,0*36
$SDHDG,181.8,,,0.6,E*33
$SDHDG,181.8,,,0.6,E*33
!AIVDM,1,1,2,,13aN1EgP0LPHBkVNI5P=Ugvn2000,0,0*4B
$GPGGA,195726,5310.8115,N,00525.7024,E,1,00,1.10,-2,M,,M,,*5A
$GPGLL,5310.8115,N,00525.7024,E,195726,A,A*40
!AIVDM,1,1,3,,15C78000000GohFNQum:NU>n0000,0,0*70
$GPGSA,A,3,,,,,,,,,,,,,2.10,1.10,1.70*07
$GPGSV,3,1,10,02,10,039,,05,15,069,,10,05,017,,13,05,348,*77
$GPGSV,3,2,10,16,13,294,,21,36,173,,23,11,317,,25,38,118,*70
$GPGSV,3,3,10,29,69,069,,31,54,240,*76
$SDHDG,181.8,,,0.6,E*33
$GPRMC,195726,A,5310.8115,N,00525.7024,E,0.0,0.0,160414,0.7,E,A*1D
$GPVTG,0.0,T,359.3,M,0.0,N,0.0,K,A*2F
!AIVDM,1,1,4,,13a5jB0P000GoWpNQuqP0?vd0000,0,0*38
$GPZDA,195726,16,04,14,-02,00*6F
$GPAAM,,,,N,*38
$GPAPB,,,,,,,,,,,,,,,N*26
$GPBOD,,T,,M,,*47
$GPRMB,,,,,,,,,,,,,,N*04
$GPXTE,,,,,N,N*5E
$SDDBT,1.9,f,0.5,M,0.3,F*08
$SDDPT,0.5,0.5,*7B
$SDMTW,12.6,C*01
$SDHDG,181.8,,,0.6,E*33
$SDVLW,$SDVLW,,N,322.0,N,$SDVLW,$SDVLW,,N,322.0,N,2328.9,N,$SDVLW,$SDVLW,,N,322.0,N,$SDVLW,$SDVLW,,N,322.0,N,2328.9,N,2315.4,N*59
$SDVHW,182.5,T,181.8,M,0.0,N,0.0,K*4C
$WIMWD,125.4,T,124.7,M,4.6,N,2.4,M*5C
$WIMWV,304.6,R,4.6,N,A*20
$WIMWV,301.4,T,4.6,N,A*21
$IIXDR,C,C,10.7,C,AIRTEMP,A,0.5,D,HEEL,A,-1.-3,D,TRIM,P,1.026,B,BARO,A,A,-4.-3,D,RUDDER*18
$SDHDG,181.8,,,0.6,E*33
!AIVDM,1,1,5,,13a6ld00000Hpm@NL1`P09dn0000,0,0*36
$SDHDG,181.8,,,0.6,E*33
!AIVDM,1,1,6,,13aGvAh0000I11@NQQs9`5vn0000,0,0*76
$SDHDG,181.8,,,0.6,E*33
!AIVDM,2,1,7,,53aL=FP000010=5J220PE8=DhE>2Q0ThuA>V220j1`6223?ns4j0DS2CQiC`88,0,2*75
!AIVDM,2,2,7,,888888883,2,2*7F
!AIVDM,1,1,8,,13aI;8wP00PHJAjNGgK00?vn2000,0,0*34
$SDHDG,181.8,,,0.6,E*33
!AIVDM,1,1,9,,33`uO27P0KPHJu8NL4n483Jp2000,0,0*76
!AIVDM,1,1,0,,33aBLqhP000JbdnNLCs00?vl0000,0,0*68
!AIVDM,1,1,1,,13aetV7P0JPHGBdNL41SM?vn2000,0,0*36
$SDHDG,181.8,,,0.6,E*33
$SDHDG,181.8,,,0.6,E*33
$SDHDG,181.8,,,0.6,E*33
$SDHDG,181.8,,,0.6,E*33
!AIVDM,1,1,2,,13c1LF0P0n0HlLtNR@j1:Ovn0000,0,0*6B
$GPGGA,195727,5310.8115,N,00525.7024,E,1,00,1.10,-2,M,,M,,*5B
$GPGLL,5310.8115,N,00525.7024,E,195727,A,A*41
$GPGSA,A,3,,,,,,,,,,,,,2.10,1.10,1.70*07
$GPGSV,3,1,10,02,10,039,,05,15,069,,10,05,017,,13,05,348,*77
$GPGSV,3,2,10,16,13,294,,21,36,173,,23,11,317,,25,38,118,*70
$GPGSV,3,3,10,29,69,069,,31,54,240,*76
$GPRMC,195727,A,5310.8115,N,00525.7024,E,0.0,0.0,160414,0.7,E,A*1C
$SDHDG,181.8,,,0.6,E*33
$GPVTG,0.0,T,359.3,M,0.0,N,0.0,K,A*2F
$GPZDA,195727,16,04,14,-02,00*6E
$GPAAM,,,,N,*38
$GPAPB,,,,,,,,,,,,,,,N*26
$GPBOD,,T,,M,,*47
!AIVDM,1,1,3,,13b<2H7000PHkHLNKT1WihTn2000,0,0*10
$GPRMB,,,,,,,,,,,,,,N*04
$GPXTE,,,,,N,N*5E
$SDDBT,1.9,f,0.5,M,0.3,F*08
$SDDPT,0.5,0.5,*7B
$SDMTW,12.5,C*02
$SDVLW,$SDVLW,,N,322.0,N,$SDVLW,$SDVLW,,N,322.0,N,2328.9,N,$SDVLW,$SDVLW,,N,322.0,N,$SDVLW,$SDVLW,,N,322.0,N,2328.9,N,2315.4,N*59
!AIVDM,1,1,4,,13aC2`wP0oPHJMtNGgwW3gvp2000,0,0*30
$SDVHW,182.4,T,181.7,M,0.0,N,0.0,K*42
$WIMWD,125.6,T,125.0,M,3.7,N,1.9,M*50
$SDHDG,181.7,,,0.6,E*3C
$WIMWV,305.9,R,3.7,N,A*28
$WIMWV,301.9,T,3.7,N,A*2A
!AIVDM,1,1,5,,13`vB;pP00PHMLlNGI7<nOvn2000,0,0*06
$IIXDR,C,C,10.6,C,AIRTEMP,A,0.5,D,HEEL,A,-1.-3,D,TRIM,P,1.026,B,BARO,A,A,-4.-3,D,RUDDER*19
!AIVDM,1,1,6,,13aDBd8P00PHivnNKBv00?vn2000,0,0*59
$SDHDG,181.7,,,0.6,E*3C
!AIVDM,1,1,7,,34hAmI50000HneFNKid94hHp0000,0,0*23
$SDHDG,181.7,,,0.6,E*3C
!AIVDM,1,1,8,,13aEOEPP00PHm@nNK`j;Ngv62000,0,0*6B
$SDHDG,181.7,,,0.6,E*3C
$SDHDG,181.7,,,0.6,E*3C
$SDHDG,181.7,,,0.6,E*3C
!AIVDM,1,1,9,,13bjvT?0000H560NQgi1Gb4n0000,0,0*71
!AIVDM,1,1,0,,13bh6v70000HjCNNKOBa:Dpr0000,0,0*0E
$SDHDG,181.7,,,0.6,E*3C
!AIVDM,1,1,1,,15Q:RP002g0FSWRN`u99fWjn0000,0,0*3C
$SDHDG,181.7,,,0.6,E*3C
!AIVDM,1,1,2,,102EFW3P000Hk`NNK`F`Bgvr0000,0,0*12
!AIVDM,1,1,3,,13aFh>?0000IvnjNSnk`j9Br0000,0,0*24
$GPGGA,195728,5310.8115,N,00525.7024,E,1,00,1.10,-2,M,,M,,*54
$SDHDG,181.7,,,0.6,E*3C
!AIVDM,1,1,4,,13aGFvwP00PHi3BNKCN00?vp2000,0,0*4F
$GPGLL,5310.8115,N,00525.7024,E,195728,A,A*4E
$GPGSA,A,3,,,,,,,,,,,,,2.10,1.10,1.70*07
$GPGSV,3,1,10,02,10,039,,05,15,069,,10,05,017,,13,05,348,*77
$GPGSV,3,2,10,16,13,294,,21,36,173,,23,11,317,,25,38,118,*70
$GPGSV,3,3,10,29,69,069,,31,54,240,*76
$GPRMC,195728,A,5310.8115,N,00525.7024,E,0.0,0.0,160414,0.7,E,A*13
$GPVTG,0.0,T,359.3,M,0.0,N,0.0,K,A*2F
$GPZDA,195728,16,04,14,-02,00*61
$SDHDG,181.7,,,0.6,E*3C
$GPAAM,,,,N,*38
$GPAPB,,,,,,,,,,,,,,,N*26
$GPBOD,,T,,M,,*47
$GPRMB,,,,,,,,,,,,,,N*04
$GPXTE,,,,,N,N*5E
$SDDBT,1.9,f,0.5,M,0.3,F*08
$SDDPT,0.5,0.5,*7B
$SDMTW,12.6,C*01
$SDVLW,$SDVLW,,N,322.0,N,$SDVLW,$SDVLW,,N,322.0,N,2328.9,N,$SDVLW,$SDVLW,,N,322.0,N,$SDVLW,$SDVLW,,N,322.0,N,2328.9,N,2315.4,N*59
$SDVHW,182.4,T,181.7,M,0.0,N,0.0,K*42
$WIMWD,126.0,T,125.4,M,3.7,N,1.9,M*51
$WIMWV,304.7,R,3.7,N,A*27
$WIMWV,305.9,T,3.7,N,A*2E
$IIXDR,C,C,10.6,C,AIRTEMP,A,0.5,D,HEEL,A,-1.-3,D,TRIM,P,1.026,B,BARO,A,A,-4.-3,D,RUDDER*19
$SDHDG,181.7,,,0.6,E*3C
$SDHDG,181.7,,,0.6,E*3C
!AIVDM,1,1,5,,13aJJNOP000JKIFNTj700?vr0000,0,0*3E
$SDHDG,181.8,,,0.6,E*33
$SDHDG,181.7,,,0.6,E*3C
$SDHDG,181.7,,,0.6,E*3C
!AIVDM,1,1,6,,15E<fj002UPIM@`NbPPRhB8t2000,0,0*35
$SDHDG,181.7,,,0.6,E*3C
!AIVDM,1,1,7,,16LWib003@PEp8LNSf?ROj0r2000,0,0*4A
$SDHDG,181.7,,,0.6,E*3C
!AIVDM,1,1,8,,13P;h8h02ePGa1hNc8I9sGrl2000,0,0*17
!AIVDM,1,1,9,,13aL?>HP00PHj52NKAEP0?vr2000,0,0*59
$SDHDG,181.7,,,0.6,E*3C
!AIVDM,1,1,0,,13cDbl001w0J@0FNfDlamGoH0000,0,0*06
$GPGGA,195729,5310.8115,N,00525.7024,E,1,00,1.10,-2,M,,M,,*55
$GPGLL,5310.8115,N,00525.7024,E,195729,A,A*4F
$SDHDG,181.7,,,0.6,E*3C
$GPGSA,A,3,,,,,,,,,,,,,2.10,1.10,1.70*07
$GPGSV,3,1,10,02,10,039,,05,15,069,,10,05,017,,13,05,348,*77
$GPGSV,3,2,10,16,13,294,,21,36,173,,23,11,317,,25,38,118,*70
$GPGSV,3,3,10,29,69,069,,31,54,240,*76
!AIVDM,1,1,1,,13aENfwP00PHi9tNK?LP0?vr2000,0,0*70
!AIVDM,1,1,2,,33aI:b5P00PHp?8NKR900?vr2000,0,0*64
$GPRMC,195729,A,5310.8115,N,00525.7024,E,0.0,0.0,160414,0.7,E,A*12
$GPVTG,0.0,T,359.3,M,0.0,N,0.0,K,A*2F
$GPZDA,195729,16,04,14,-02,00*60
$GPAAM,,,,N,*38
$GPAPB,,,,,,,,,,,,,,,N*26
$GPBOD,,T,,M,,*47
$GPRMB,,,,,,,,,,,,,,N*04
$GPXTE,,,,,N,N*5E
$SDHDG,181.7,,,0.6,E*3C
$SDDBT,1.8,f,0.5,M,0.3,F*09
$SDDPT,0.5,0.5,*7B
$SDMTW,12.5,C*02
$SDVLW,$SDVLW,,N,322.0,N,$SDVLW,$SDVLW,,N,322.0,N,2328.9,N,$SDVLW,$SDVLW,,N,322.0,N,$SDVLW,$SDVLW,,N,322.0,N,2328.9,N,2315.4,N*59
!AIVDM,1,1,3,,13aGD7pP0?0Ho@2NKnWR4Ovj0000,0,0*5C
$SDVHW,182.4,T,181.7,M,0.0,N,0.0,K*42
$WIMWD,126.2,T,125.6,M,3.7,N,1.9,M*51
$WIMWV,303.1,R,3.7,N,A*26
$WIMWV,303.6,T,3.7,N,A*27
!AIVDM,1,1,4,,33bC3V51000Hkh2NKUt`3:rp0000,0,0*09
$IIXDR,C,C,10.6,C,AIRTEMP,A,0.5,D,HEEL,A,-1.-3,D,TRIM,P,1.026,B,BARO,A,A,-4.-3,D,RUDDER*19
$SDHDG,181.7,,,0.6,E*3C
!AIVDM,1,1,5,,13aIi0gP00PHkIdNKQLaUwvt2000,0,0*0F
$SDHDG,181.7,,,0.6,E*3C
!AIVDM,1,1,6,,13aGti@00UPJVitNKaq:8Wrt2000,0,0*74
$SDHDG,181.7,,,0.6,E*3C
!AIVDM,1,1,7,,13`uO27P0KPHJvBNL4l4=3Nv2000,0,0*06
$SDHDG,181.7,,,0.6,E*3C
!AIVDM,1,1,8,,13bQtf?P000Hf3fNFs>ak?vv0000,0,0*34
$SDHDG,181.7,,,0.6,E*3C
$SDHDG,181.7,,,0.6,E*3C
!AIVDM,1,1,9,,E>jN6<0W6@1WPab3bPa2@LtP0000:uoH?9Ur@00000000?,4,4*7F
$SDHDG,181.7,,,0.6,E*3C
!AIVDM,1,1,0,,13:krn000n0HNW8NH6n9=7Hr0000,0,0*54
$SDHDG,181.7,,,0.6,E*3C
$GPGGA,195730,5310.8116,N,00525.7024,E,1,00,1.10,-2,M,,M,,*5E
$GPGLL,5310.8116,N,00525.7024,E,195730,A,A*44
$GPGSA,A,3,,,,,,,,,,,,,2.10,1.10,1.70*07
$GPGSV,3,1,10,02,10,039,,05,15,069,,10,05,017,,13,05,348,*77
$GPGSV,3,2,10,16,13,294,,21,36,173,,23,11,317,,25,38,118,*70
$GPGSV,3,3,10,29,69,069,,31,54,240,*76
!AIVDM,1,1,1,,13aGDjkP0OPJUMtNScocwgvt2000,0,0*10
$SDHDG,181.7,,,0.6,E*3C
$GPRMC,195730,A,5310.8116,N,00525.7024,E,0.1,0.0,160414,0.7,E,A*18
!AIVDM,1,1,2,,13aDA0PP00PHn3fNKRF00?vt2000,0,0*12
$GPVTG,0.0,T,359.3,M,0.1,N,0.2,K,A*2C
$GPZDA,195730,16,04,14,-02,00*68
$GPAAM,,,,N,*38
!AIVDM,1,1,3,,13aGDjCP00PHiQdNK9ccfgvp2000,0,0*2C
$GPAPB,,,,,,,,,,,,,,,N*26
$GPBOD,,T,,M,,*47
$GPRMB,,,,,,,,,,,,,,N*04
$GPXTE,,,,,N,N*5E
$SDDBT,1.8,f,0.5,M,0.3,F*09
$SDDPT,0.5,0.5,*7B
$SDHDG,181.7,,,0.6,E*3C
$SDMTW,12.6,C*01
$SDVLW,$SDVLW,,N,322.0,N,$SDVLW,$SDVLW,,N,322.0,N,2328.9,N,$SDVLW,$SDVLW,,N,322.0,N,$SDVLW,$SDVLW,,N,322.0,N,2328.9,N,2315.4,N*59
!AIVDM,1,1,4,,13aGFgSP00PGp34NQt`cO?vv2000,0,0*33
$SDVHW,182.4,T,181.7,M,0.0,N,0.0,K*42
$WIMWD,126.2,T,125.5,M,3.7,N,1.9,M*52
$WIMWV,296.0,R,3.7,N,A*2A
$WIMWV,291.0,T,3.7,N,A*2B
$IIXDR,C,C,10.6,C,AIRTEMP,A,0.5,D,HEEL,A,-1.-3,D,TRIM,P,1.026,B,BARO,A,A,-4.-3,D,RUDDER*19
!AIVDM,1,1,5,,E>jN6<0W6@1WPab3bPa2@LtP0000:uoH?9Ur@00000000?,4,4*73
$SDHDG,181.7,,,0.6,E*3C
!AIVDM,1,1,6,,13bHGL?P0JPHMe2NU@bRhgvv2000,0,0*1F
$SDHDG,181.7,,,0.6,E*3C
$SDHDG,181.7,,,0.6,E*3C
$SDHDG,181.7,,,0.6,E*3C
$SDHDG,181.7,,,0.6,E*3C
$SDHDG,181.7,,,0.6,E*3C
!AIVDM,2,1,7,,53a?OH0000010?GC;R0P7B1@Tp6222222222220N285222w103B0DS2CQiC`88,0,2*0C
!AIVDM,2,2,7,,888888883,2,2*7F
!AIVDM,1,1,8,,13aMB<?015PGdvPNJqTQrAJr2000,0,0*34
$SDHDG,181.7,,,0.6,E*3C
!AIVDM,1,1,9,,13btD>00000GqJ6NR>A3rFbv0000,0,0*26
!AIVDM,1,1,0,,13bb0F?00D0GiQ8NTGC:>8=00000,0,0*1C
$SDHDG,181.7,,,0.6,E*3C
$GPGGA,195731,5310.8116,N,00525.7023,E,1,00,1.10,-2,M,,M,,*58
$GPGLL,5310.8116,N,00525.7023,E,195731,A,A*42
$GPGSA,A,3,,,,,,,,,,,,,2.10,1.10,1.70*07
$GPGSV,3,1,10,02,10,039,,05,15,069,,10,05,017,,13,05,348,*77
$GPGSV,3,2,10,16,13,294,,21,36,173,,23,11,317,,25,38,118,*70
$GPGSV,3,3,10,29,69,069,,31,54,240,*76
$SDHDG,181.7,,,0.6,E*3C
$GPRMC,195731,A,5310.8116,N,00525.7023,E,0.1,0.0,160414,0.7,E,A*1E
$GPVTG,0.0,T,359.3,M,0.1,N,0.2,K,A*2C
$GPZDA,195731,16,04,14,-02,00*69
$GPAAM,,,,N,*38
!AIVDM,1,1,1,,13`va@0P000HpJHNKnVa6ww00000,0,0*4F
$GPAPB,,,,,,,,,,,,,,,N*26
$GPBOD,,T,,M,,*47
$GPRMB,,,,,,,,,,,,,,N*04
$GPXTE,,,,,N,N*5E
$SDDBT,1.8,f,0.5,M,0.3,F*09
$SDDPT,0.5,0.5,*7B
$SDMTW,12.6,C*01
$SDVLW,$SDVLW,,N,322.0,N,$SDVLW,$SDVLW,,N,322.0,N,2328.9,N,$SDVLW,$SDVLW,,N,322.0,N,$SDVLW,$SDVLW,,N,322.0,N,2328.9,N,2315.4,N*59
!AIVDM,1,1,2,,13aGFROP000Ho=>NKmP;;ww00000,0,0*7A
$SDHDG,181.7,,,0.6,E*3C
$SDVHW,182.4,T,181.7,M,0.0,N,0.0,K*42
$WIMWD,126.1,T,125.5,M,4.6,N,2.4,M*59
$WIMWV,285.8,R,4.6,N,A*26
$WIMWV,290.8,T,4.6,N,A*24
!AIVDM,1,1,3,,14h?6j003B0G;DfNVmTRMQu00000,0,0*73
$IIXDR,C,C,10.6,C,AIRTEMP,A,0.5,D,HEEL,A,-1.-3,D,TRIM,P,1.026,B,BARO,A,A,-4.-3,D,RUDDER*19
$SDHDG,181.7,,,0.6,E*3C
$SDHDG,181.7,,,0.6,E*3C
!AIVDM,1,1,4,,13c0aT00000HJJ8NGeMb5Ji00000,0,0*0E
!AIVDM,1,1,5,,13aKWv?P000HjUhNK?v:ggw00000,0,0*36
$SDHDG,181.7,,,0.6,E*3C
!AIVDM,1,1,6,,13aGCN8P00PHj8HNKB@c9gw22000,0,0*73
$SDHDG,181.7,,,0.6,E*3C
$SDHDG,181.7,,,0.6,E*3C
!AIVDM,1,1,7,,13aGuu@P00PHq02NKuu00?w02000,0,0*6C
!AIVDM,1,1,8,,13aJH>OP00PGpVlNR0;:;Ow22000,0,0*40
$SDHDG,181.7,,,0.6,E*3C
$SDHDG,181.7,,,0.6,E*3C
!AIVDM,1,1,9,,13aGFRwP000HnkjNKlD:7Ow20000,0,0*68
!AIVDM,1,1,0,,15C3:600000Gok4NQuD`lTC20000,0,0*73
!AIVDM,1,1,1,,13aFgphP1EPHEMpNC4m77gw22000,0,0*20
$SDHDG,181.7,,,0.6,E*3C
$GPGGA,195732,5310.8116,N,00525.7023,E,1,00,1.10,-2,M,,M,,*5B
$GPGLL,5310.8116,N,00525.7023,E,195732,A,A*41
$GPGSA,A,3,,,,,,,,,,,,,2.10,1.10,1.70*07
$GPGSV,3,1,10,02,10,039,,05,15,069,,10,05,017,,13,05,348,*77
$GPGSV,3,2,10,16,13,294,,21,36,173,,23,11,317,,25,38,118,*70
$GPGSV,3,3,10,29,69,069,,31,54,240,*76
$GPRMC,195732,A,5310.8116,N,00525.7023,E,0.1,0.0,160414,0.7,E,A*1D
$GPVTG,0.0,T,359.3,M,0.1,N,0.2,K,A*2C
$SDHDG,181.7,,,0.6,E*3C
$GPZDA,195732,16,04,14,-02,00*6A
$GPAAM,,,,N,*38
!AIVDM,1,1,2,,13brCD00000HtKVNKFaS@CG20000,0,0*4A
$GPAPB,,,,,,,,,,,,,,,N*26
$GPBOD,,T,,M,,*47
$GPRMB,,,,,,,,,,,,,,N*04
$GPXTE,,,,,N,N*5E
$SDDBT,1.9,f,0.5,M,0.3,F*08
$SDDPT,0.5,0.5,*7B
$SDMTW,12.6,C*01
!AIVDM,1,1,3,,13aBMu@P00PJK4dNEh500?w02000,0,0*6C
$SDVLW,$SDVLW,,N,322.0,N,$SDVLW,$SDVLW,,N,322.0,N,2328.9,N,$SDVLW,$SDVLW,,N,322.0,N,$SDVLW,$SDVLW,,N,322.0,N,2328.9,N,2315.4,N*59
$SDVHW,182.4,T,181.7,M,0.0,N,0.0,K*42
$WIMWD,125.8,T,125.2,M,4.6,N,2.4,M*54
$SDHDG,181.7,,,0.6,E*3C
$WIMWV,283.2,R,4.6,N,A*2A
$WIMWV,292.4,T,4.6,N,A*2A
$IIXDR,C,C,10.7,C,AIRTEMP,A,0.5,D,HEEL,A,-1.-3,D,TRIM,P,1.026,B,BARO,A,A,-4.-3,D,RUDDER*18
$SDHDG,181.7,,,0.6,E*3C
!AIVDM,1,1,4,,13`e=?HP00PHmI:NKBS00?w22000,0,0*38
$SDHDG,181.7,,,0.6,E*3C
!AIVDM,1,1,5,,13aBLqgP00PHpRDNKQWP0?w22000,0,0*00
!AIVDM,1,1,6,,13aFgJ?P00PHf8TNFsa00?w22000,0,0*5A
!AIVDM,1,1,7,,13aIi<0P00PJKP0NTjWP0?w22000,0,0*5D
$SDHDG,181.7,,,0.6,E*3C
!AIVDM,1,1,8,,13aI9j8P00PHit@NKG:00?w22000,0,0*17
$SDHDG,181.7,,,0.6,E*3C
!AIVDM,1,1,9,,13aGuE@P00PJKh8NTii;bgw42000,0,0*22
!AIVDM,1,1,0,,13aEQuOP00PHiutNKCM00?w22000,0,0*55
$SDHDG,181.7,,,0.6,E*3C
!AIVDM,1,1,1,,13b8s:001APKe?tNd`T:tHW22000,0,0*61
!AIVDM,1,1,2,,13aDBD0P00PHj0BNKB>7FOw22000,0,0*08
$SDHDG,181.7,,,0.6,E*3C
$SDHDG,181.7,,,0.6,E*3C
$GPGGA,195733,5310.8117,N,00525.7023,E,1,00,1.10,-2,M,,M,,*5B
$SDHDG,181.7,,,0.6,E*3C
$GPGLL,5310.8117,N,00525.7023,E,195733,A,A*41
$GPGSA,A,3,,,,,,,,,,,,,2.10,1.10,1.70*07
$GPGSV,3,1,10,02,10,039,,05,15,069,,10,05,017,,13,05,348,*77
$GPGSV,3,2,10,16,13,294,,21,36,173,,23,11,317,,25,38,118,*70
$GPGSV,3,3,10,29,69,069,,31,54,240,*76
$GPRMC,195733,A,5310.8117,N,00525.7023,E,0.1,0.0,160414,0.7,E,A*1D
$GPVTG,0.0,T,359.3,M,0.1,N,0.2,K,A*2C
$GPZDA,195733,16,04,14,-02,00*6B
!AIVDM,1,1,3,,33`uO27P0KPHJwlNL4hTBSQ42000,0,0*09
$GPAAM,,,,N,*38
$GPAPB,,,,,,,,,,,,,,,N*26
$SDHDG,181.7,,,0.6,E*3C
$GPBOD,,T,,M,,*47
$GPRMB,,,,,,,,,,,,,,N*04
$GPXTE,,,,,N,N*5E
$SDDBT,1.8,f,0.5,M,0.3,F*09
$SDDPT,0.5,0.5,*7B
$SDMTW,12.6,C*01
$SDVLW,$SDVLW,,N,322.0,N,$SDVLW,$SDVLW,,N,322.0,N,2328.9,N,$SDVLW,$SDVLW,,N,322.0,N,$SDVLW,$SDVLW,,N,322.0,N,2328.9,N,2315.4,N*59
$SDVHW,182.4,T,181.7,M,0.0,N,0.0,K*42
$WIMWD,125.7,T,125.0,M,4.6,N,2.4,M*59
!AIVDM,1,1,4,,13b`Bv5P1GPHU>jNHaIQ5Ow22000,0,0*33
$WIMWV,295.8,R,4.6,N,A*27
$WIMWV,301.8,T,4.6,N,A*2D
$IIXDR,C,C,10.7,C,AIRTEMP,A,0.5,D,HEEL,A,-1.-3,D,TRIM,P,1.026,B,BARO,A,A,-4.-3,D,RUDDER*18
$SDHDG,181.7,,,0.6,E*3C
!AIVDM,1,1,5,,13aR>V0000PHifDNK;<:mr;42000,0,0*6E
!AIVDM,1,1,6,,13P<QQ@0000Hdg6NFpH0G:Q20000,0,0*00
$SDHDG,181.7,,,0.6,E*3C
$SDHDG,181.7,,,0.6,E*3C
!AIVDM,1,1,7,,13aL>vwP00PIMt@NKaJP0?w42000,0,0*5C
$SDHDG,181.7,,,0.6,E*3C
!AIVDM,1,1,8,,15Q:RP002g0FSMpN`tnafWk20000,0,0*5E
!AIVDM,1,1,9,,102EFW3P00PHk`NNK`E`I?w62000,0,0*6E
$SDHDG,181.7,,,0.6,E*3C
!AIVDM,1,1,0,,13b=DJ0P00PGp@6NQut9r?w62000,0,0*40
!AIVDM,1,1,1,,13aJGrOP00PGph4NR9h00?w42000,0,0*41
$SDHDG,181.7,,,0.6,E*3C
$SDHDG,181.7,,,0.6,E*3C
!AIVDM,1,1,2,,13aL<SPP00PJG<RNKueP0?w42000,0,0*31
!AIVDM,1,1,3,,13`j7c00@0PG?:8NOgf59lE62000,0,0*5F
$SDHDG,181.7,,,0.6,E*3C
!AIVDM,1,1,4,,13aI;8gP00PHf14NFt5P0?w42000,0,0*7D
$GPGGA,195734,5310.8117,N,00525.7023,E,1,00,1.10,-2,M,,M,,*5C
$GPGLL,5310.8117,N,00525.7023,E,195734,A,A*46
$SDHDG,181.7,,,0.6,E*3C
$GPGSA,A,3,,,,,,,,,,,,,2.10,1.10,1.70*07
$GPGSV,3,1,10,02,10,039,,05,15,069,,10,05,017,,13,05,348,*77
$GPGSV,3,2,10,16,13,294,,21,36,173,,23,11,317,,25,38,118,*70
$GPGSV,3,3,10,29,69,069,,31,54,240,*76
$GPRMC,195734,A,5310.8117,N,00525.7023,E,0.1,0.0,160414,0.7,E,A*1A
$GPVTG,0.0,T,359.3,M,0.1,N,0.2,K,A*2C
!AIVDM,1,1,5,,33aGua?P00PHfEJNFrrP0?w42000,0,0*74
$GPZDA,195734,16,04,14,-02,00*6C
$GPAAM,,,,N,*38
$GPAPB,,,,,,,,,,,,,,,N*26
$SDHDG,181.7,,,0.6,E*3C
$GPBOD,,T,,M,,*47
$GPRMB,,,,,,,,,,,,,,N*04
$GPXTE,,,,,N,N*5E
$SDDBT,1.8,f,0.5,M,0.3,F*09
$SDDPT,0.5,0.5,*7B
$SDMTW,12.6,C*01
$SDVLW,$SDVLW,,N,322.0,N,$SDVLW,$SDVLW,,N,322.0,N,2328.9,N,$SDVLW,$SDVLW,,N,322.0,N,$SDVLW,$SDVLW,,N,322.0,N,2328.9,N,2315.4,N*59
$SDVHW,182.4,T,181.7,M,0.0,N,0.0,K*42
$WIMWD,125.1,T,124.4,M,3.7,N,1.9,M*52
$WIMWV,292.0,R,3.7,N,A*2E
$WIMWV,281.3,T,3.7,N,A*29
$IIXDR,C,C,10.7,C,AIRTEMP,A,0.5,D,HEEL,A,-1.-3,D,TRIM,P,1.026,B,BARO,A,A,-4.-3,D,RUDDER*18
$SDHDG,181.8,,,0.6,E*33
!AIVDM,1,1,6,,33bb0F?00D0GiP@NTGD:KH?60000,0,0*67
$SDHDG,181.8,,,0.6,E*33
$SDHDG,181.8,,,0.6,E*33
!AIVDM,1,1,7,,33`qM>800ePGAcPNSJm2fBC62000,0,0*4D
!AIVDM,1,1,8,,13cLV`001F0HNp:NH6Ka=WI80000,0,0*52
$SDHDG,181.8,,,0.6,E*33
!AIVDM,1,1,9,,16LWib003@PEpI0NSfmROj162000,0,0*5E
!AIVDM,1,1,0,,E02E340W6@1WPab3bPa200000000:uoH?9Ur@00000000?,4,4*0E
$SDHDG,181.8,,,0.6,E*33
!AIVDM,1,1,1,,15E<fj002UPIMNHNbPo2hB982000,0,0*06
$SDHDG,181.8,,,0.6,E*33
!AIVDM,1,1,2,,13`rcF?P000HRl0N@b500?w40000,0,0*40
$SDHDG,181.8,,,0.6,E*33
!AIVDM,1,1,3,,13a6ld00000HpmTNL1`P09e80000,0,0*73
$SDHDG,181.8,,,0.6,E*33
!AIVDM,1,1,4,,E02E340W6@1WPab3bPa200000000:uoH?9Ur@00000000?,4,4*0A
!AIVDM,1,1,5,,13aI;8wP00PHJAbNGgK00?w62000,0,0*68
$GPGGA,195735,5310.8117,N,00525.7023,E,1,00,1.10,-2,M,,M,,*5D
$GPGLL,5310.8117,N,00525.7023,E,195735,A,A*47
$GPGSA,A,3,,,,,,,,,,,,,2.10,1.10,1.70*07
$GPGSV,3,1,10,02,10,039,,05,15,069,,10,05,017,,13,05,348,*77
$GPGSV,3,2,10,16,13,294,,21,36,173,,23,11,317,,25,38,118,*70
$GPGSV,3,3,10,29,69,069,,31,54,240,*76
$SDHDG,181.8,,,0.6,E*33
$GPRMC,195735,A,5310.8117,N,00525.7023,E,0.0,0.0,160414,0.7,E,A*1A
$GPVTG,0.0,T,359.3,M,0.0,N,0.0,K,A*2F
$GPZDA,195735,16,04,14,-02,00*6D
$GPAAM,,,,N,*38
$GPAPB,,,,,,,,,,,,,,,N*26
$GPBOD,,T,,M,,*47
$GPRMB,,,,,,,,,,,,,,N*04
$GPXTE,,,,,N,N*5E
$SDDBT,1.9,f,0.5,M,0.3,F*08
$SDDPT,0.5,0.5,*7B
$SDMTW,12.6,C*01
$SDVLW,$SDVLW,,N,322.0,N,$SDVLW,$SDVLW,,N,322.0,N,2328.9,N,$SDVLW,$SDVLW,,N,322.0,N,$SDVLW,$SDVLW,,N,322.0,N,2328.9,N,2315.4,N*59
$SDHDG,181.8,,,0.6,E*33
!AIVDM,1,1,6,,13bNqJ0P1>PFhq:NJujelgw82000,0,0*3A
$SDVHW,182.5,T,181.8,M,0.0,N,0.0,K*4C
$WIMWD,125.0,T,124.4,M,3.7,N,1.9,M*53
!AIVDM,1,1,7,,13aN1EgP0LPHBjrNI5j=Vww82000,0,0*15
$WIMWV,299.4,R,4.6,N,A*27
$WIMWV,290.2,T,3.7,N,A*28
$IIXDR,C,C,10.7,C,AIRTEMP,A,0.5,D,HEEL,A,-1.-3,D,TRIM,P,1.026,B,BARO,A,A,-4.-3,D,RUDDER*18
!AIVDM,1,1,8,,13aIkM@P00PJ@ofNL=dP0?w62000,0,0*4B
$SDHDG,181.8,,,0.6,E*33
!AIVDM,1,1,9,,13a5jB0P000GoWpNQuqP0?vv0000,0,0*27
$SDHDG,181.7,,,0.6,E*3C
$SDHDG,181.7,,,0.6,E*3C
!AIVDM,1,1,0,,E02E340W6@1WPab3bPa200000000:uoH?9Ur@00000000?,4,4*0E
!AIVDM,1,1,1,,13aGuEPP00PJL20NTkSav?w:2000,0,0*4F
!AIVDM,1,1,2,,33aE:b5P000Hj5FNKCg5Agw60000,0,0*42
$SDHDG,181.7,,,0.6,E*3C
!AIVDM,1,1,3,,13aFfb0P00PJgQ2NFp600?w82000,0,0*2B
!AIVDM,1,1,4,,13aENr@P00PHTGhN@QGP0?w82000,0,0*2C
$SDHDG,181.7,,,0.6,E*3C
!AIVDM,1,1,5,,13aDr68P00PHj3hNKAH00?w82000,0,0*12
!AIVDM,1,1,6,,13aB:Hh000PHjDvNKJi2F1s82000,0,0*2C
$SDHDG,181.8,,,0.6,E*33
!AIVDM,1,1,7,,13b<2H7000PHkH4NKT48?@U82000,0,0*2F
$SDHDG,181.8,,,0.6,E*33
$SDHDG,181.8,,,0.6,E*33
$GPGGA,195736,5310.8118,N,00525.7023,E,1,00,1.10,-2,M,,M,,*51
$GPGLL,5310.8118,N,00525.7023,E,195736,A,A*4B
$GPGSA,A,3,,,,,,,,,,,,,2.10,1.10,1.70*07
$GPGSV,3,1,10,02,10,039,,05,15,069,,10,05,017,,13,05,348,*77
$GPGSV,3,2,10,16,13,294,,21,36,173,,23,11,317,,25,38,118,*70
$GPGSV,3,3,10,29,69,069,,31,54,240,*76
$GPRMC,195736,A,5310.8118,N,00525.7023,E,0.0,0.0,160414,0.7,E,A*16
$GPVTG,0.0,T,359.3,M,0.0,N,0.0,K,A*2F
$GPZDA,195736,16,04,14,-02,00*6E
$SDHDG,181.8,,,0.6,E*33
$GPAAM,,,,N,*38
$GPAPB,,,,,,,,,,,,,,,N*26
$GPBOD,,T,,M,,*47
!AIVDM,1,1,8,,13aetV7P0JPHGFfNL41STOw82000,0,0*07
$GPRMB,,,,,,,,,,,,,,N*04
$GPXTE,,,,,N,N*5E
$SDDBT,1.9,f,0.5,M,0.3,F*08
$SDDPT,0.5,0.5,*7B
$SDMTW,12.6,C*01
$SDVLW,$SDVLW,,N,322.0,N,$SDVLW,$SDVLW,,N,322.0,N,2328.9,N,$SDVLW,$SDVLW,,N,322.0,N,$SDVLW,$SDVLW,,N,322.0,N,2328.9,N,2315.4,N*59
!AIVDM,1,1,9,,13a?OH?00OPH>bhNM1oUJlC:2000,0,0*10
$SDVHW,182.5,T,181.8,M,0.0,N,0.0,K*4C
$WIMWD,125.2,T,124.5,M,3.7,N,1.9,M*50
$WIMWV,296.4,R,3.7,N,A*2E
$WIMWV,297.3,T,3.7,N,A*2E
$SDHDG,181.8,,,0.6,E*33
$IIXDR,C,C,10.7,C,AIRTEMP,A,0.5,D,HEEL,A,-1.-3,D,TRIM,P,1.026,B,BARO,A,A,-4.-3,D,RUDDER*18
!AIVDM,1,1,0,,13aL>Dg000PGa@nNKge62TS:2000,0,0*2D
$SDHDG,181.8,,,0.6,E*33
!AIVDM,1,1,1,,13aDrkOP00PHi>tNKB0Upgw82000,0,0*28
$SDHDG,181.8,,,0.6,E*33
!AIVDM,1,1,2,,B39k:bP0?`635IWWAS31;wP00000,0,0*48
$SDHDG,181.8,,,0.6,E*33
!AIVDM,1,1,3,,15C78000000GohBNQun:Pm?:0000,0,0*04
!AIVDM,1,1,4,,13aC2`wP0lPHJMpNGgN6rOw<2000,0,0*4B
$SDHDG,181.8,,,0.6,E*33
!AIVDM,1,1,5,,33`uO27P0LPHK0vNL4fTI3S<2000,0,0*3B
$SDHDG,181.8,,,0.6,E*33
!AIVDM,1,1,6,,13aDBd8P00PHivjNKC000?w:2000,0,0*4F
$SDHDG,181.8,,,0.6,E*33
$SDHDG,181.8,,,0.6,E*33
!AIVDM,1,1,7,,13aGE00P00PGp0LNQupbBgw<2000,0,0*72
$GPGGA,195737,5310.8118,N,00525.7023,E,1,00,1.10,-2,M,,M,,*50
$GPGLL,5310.8118,N,00525.7023,E,195737,A,A*4A
!AIVDM,1,1,8,,13c1LF0P0l0HlR<NRA=25Ow:0000,0,0*3A
$GPGSA,A,3,,,,,,,,,,,,,2.10,1.10,1.70*07
$GPGSV,3,1,10,02,10,039,,05,15,069,,10,05,017,,13,05,348,*77
$GPGSV,3,2,10,16,13,294,,21,36,173,,23,11,317,,25,38,118,*70
$GPGSV,3,3,10,29,69,069,,31,54,240,*76
$SDHDG,181.8,,,0.6,E*33
$GPRMC,195737,A,5310.8118,N,00525.7023,E,0.0,0.0,160414,0.7,E,A*17
!AIVDM,1,1,9,,13aEOEPP00PHm@bNK`icNgvJ2000,0,0*41
$GPVTG,0.0,T,359.3,M,0.0,N,0.0,K,A*2F
!AIVDM,1,1,0,,13`fJDh0000Epp@NE2T4TIw80000,0,0*27
$GPZDA,195737,16,04,14,-02,00*6F
$GPAAM,,,,N,*38
$GPAPB,,,,,,,,,,,,,,,N*26
$GPBOD,,T,,M,,*47
$GPRMB,,,,,,,,,,,,,,N*04
!AIVDM,1,1,1,,13aFh>?0000IvnfNSnk8VqG<0000,0,0*4D
$GPXTE,,,,,N,N*5E
$SDDBT,1.8,f,0.5,M,0.3,F*09
$SDHDG,181.8,,,0.6,E*33
$SDDPT,0.5,0.5,*7B
$SDMTW,12.6,C*01
$SDVLW,$SDVLW,,N,322.0,N,$SDVLW,$SDVLW,,N,322.0,N,2328.9,N,$SDVLW,$SDVLW,,N,322.0,N,$SDVLW,$SDVLW,,N,322.0,N,2328.9,N,2315.4,N*59
$SDVHW,182.5,T,181.8,M,0.0,N,0.0,K*4C
$WIMWD,125.3,T,124.7,M,3.7,N,1.9,M*53
$WIMWV,305.3,R,3.7,N,A*22
$WIMWV,305.0,T,3.7,N,A*27
$IIXDR,C,C,10.7,C,AIRTEMP,A,0.5,D,HEEL,A,-1.-3,D,TRIM,P,1.026,B,BARO,A,A,-4.-3,D,RUDDER*18
$SDHDG,181.8,,,0.6,E*33
!AIVDM,1,1,2,,E02E381`60b37a6h6Lh@@@@@@@@0;FdI?EdeP00000000?,4,4*28
$SDHDG,181.8,,,0.6,E*33
!AIVDM,1,1,3,,13aGvAh0000I11NNQQscC5w<0000,0,0*57
!AIVDM,1,1,4,,13`t=0001DPHHO>NQ>Vbbpa<2000,0,0*58
$SDHDG,181.8,,,0.6,E*33
$SDHDG,181.8,,,0.6,E*33
$SDHDG,181.8,,,0.6,E*33
$SDHDG,181.8,,,0.6,E*33
$SDHDG,181.8,,,0.6,E*33
!AIVDM,1,1,5,,13bjvT?0000H55vNQghQGb5:0000,0,0*0C
$SDHDG,181.8,,,0.6,E*33
!AIVDM,1,1,6,,14h?6j003B0G;WvNVnCRMQw>0000,0,0*6D
$GPGGA,195738,5310.8119,N,00525.7023,E,1,00,1.10,-2,M,,M,,*5E
$GPGLL,5310.8119,N,00525.7023,E,195738,A,A*44
$GPGSA,A,3,,,,,,,,,,,,,2.10,1.10,1.70*07
$GPGSV,3,1,10,02,10,039,,05,15,069,,10,05,017,,13,05,348,*77
$GPGSV,3,2,10,16,13,294,,21,36,173,,23,11,317,,25,38,118,*70
$GPGSV,3,3,10,29,69,069,,31,54,240,*76
$SDHDG,181.8,,,0.6,E*33
$GPRMC,195738,A,5310.8119,N,00525.7023,E,0.0,0.0,160414,0.7,E,A*19
$GPVTG,0.0,T,359.3,M,0.0,N,0.0,K,A*2F
$GPZDA,195738,16,04,14,-02,00*60
$GPAAM,,,,N,*38
$GPAPB,,,,,,,,,,,,,,,N*26
$GPBOD,,T,,M,,*47
$GPRMB,,,,,,,,,,,,,,N*04
!AIVDM,1,1,7,,13cDbl001w0J?hDNfDK9moob0000,0,0*59
$GPXTE,,,,,N,N*5E
$SDDBT,1.8,f,0.5,M,0.3,F*09
!AIVDM,1,1,8,,13aFfRPP00PIu@tNF3cP0?w<2000,0,0*44
$SDDPT,0.5,0.5,*7B
$SDHDG,181.8,,,0.6,E*33
$SDMTW,12.6,C*01
$SDVLW,$SDVLW,,N,322.0,N,$SDVLW,$SDVLW,,N,322.0,N,2328.9,N,$SDVLW,$SDVLW,,N,322.0,N,$SDVLW,$SDVLW,,N,322.0,N,2328.9,N,2315.4,N*59
$SDVHW,182.5,T,181.8,M,0.0,N,0.0,K*4C
$WIMWD,125.5,T,124.8,M,3.7,N,1.9,M*5A
$WIMWV,308.7,R,3.7,N,A*2B
$WIMWV,297.3,T,3.7,N,A*2E
$IIXDR,C,C,10.7,C,AIRTEMP,A,0.5,D,HEEL,A,-1.-3,D,TRIM,P,1.027,B,BARO,A,A,-4.-3,D,RUDDER*19
$SDHDG,181.8,,,0.6,E*33
$SDHDG,181.8,,,0.6,E*33
!AIVDM,1,1,9,,33bgc`50000Hja`NKFdVT2U<0000,0,0*2C
!AIVDM,1,1,0,,13aIi0gP00PHkIRNKQLaPOw>2000,0,0*4A
$SDHDG,181.8,,,0.6,E*33
!AIVDM,2,1,1,,53aDA0P000010CGW?81Dp@TpD0000000000000166H5251Hdm0UPC`23m83P@D,0,2*17
!AIVDM,2,2,1,,`21DP0003,2,2*3E
$SDHDG,181.8,,,0.6,E*33
$SDHDG,181.8,,,0.6,E*33
!AIVDM,1,1,2,,13aI8e?P00PGpUJNR6sP0?w>2000,0,0*64
$SDHDG,181.8,,,0.6,E*33
!AIVDM,1,1,3,,13aGFvwP00PHi3JNKCN00?w>2000,0,0*0F
$SDHDG,181.8,,,0.6,E*33
!AIVDM,1,1,4,,13aGD7pP0?0HoA6NKn`24Ow60000,0,0*54
$SDHDG,181.8,,,0.6,E*33
$GPGGA,195739,5310.8119,N,00525.7022,E,1,00,1.10,-2,M,,M,,*5E
$GPGLL,5310.8119,N,00525.7022,E,195739,A,A*44
$GPGSA,A,3,,,,,,,,,,,,,2.10,1.10,1.70*07
$GPGSV,3,1,10,02,10,039,,05,15,069,,10,05,017,,13,05,348,*77
$GPGSV,3,2,10,16,13,294,,21,36,173,,23,11,317,,25,38,118,*70
$GPGSV,3,3,10,29,69,069,,31,54,240,*76
!AIVDM,1,1,5,,15Q:RP002g0FS:PN`tCafWk>0000,0,0*25
$GPRMC,195739,A,5310.8119,N,00525.7022,E,0.1,0.0,160414,0.7,E,A*18
$GPVTG,0.0,T,359.3,M,0.1,N,0.2,K,A*2C
$SDHDG,181.8,,,0.6,E*33
$GPZDA,195739,16,04,14,-02,00*61
$GPAAM,,,,N,*38
$GPAPB,,,,,,,,,,,,,,,N*26
$GPBOD,,T,,M,,*47
$GPRMB,,,,,,,,,,,,,,N*04
$GPXTE,,,,,N,N*5E
$SDDBT,1.8,f,0.5,M,0.3,F*09
$SDDPT,0.5,0.5,*7B
$SDMTW,12.5,C*02
$SDHDG,181.8,,,0.6,E*33
$SDVLW,$SDVLW,,N,322.0,N,$SDVLW,$SDVLW,,N,322.0,N,2328.9,N,$SDVLW,$SDVLW,,N,322.0,N,$SDVLW,$SDVLW,,N,322.0,N,2328.9,N,2315.4,N*59
$SDVHW,182.5,T,181.8,M,0.0,N,0.0,K*4C
$WIMWD,125.5,T,124.9,M,3.7,N,1.9,M*5B
$WIMWV,292.1,R,3.7,N,A*2F
$WIMWV,292.1,T,3.7,N,A*29
$IIXDR,C,C,10.7,C,AIRTEMP,A,0.5,D,HEEL,A,-1.-3,D,TRIM,P,1.027,B,BARO,A,A,-4.-3,D,RUDDER*19
$SDHDG,181.8,,,0.6,E*33
!AIVDM,1,1,6,,13`gh8700IPIpqHNWl6:dHa@2000,0,0*40
$SDHDG,181.8,,,0.6,E*33
!AIVDM,1,1,7,,13aGF=8P00PGpaHNR8UWj?w@2000,0,0*73
$SDHDG,181.8,,,0.6,E*33
$SDHDG,181.8,,,0.6,E*33
!AIVDM,1,1,8,,13bh6v70000HjCNNKOBa=4qB0000,0,0*40
!AIVDM,1,1,9,,E>jN6<0W6@1WPab3bPa2@LtP0000:uoH?9Ur@00000000?,4,4*7F
$SDHDG,181.8,,,0.6,E*33
!AIVDM,1,1,0,,13aENfwP00PHi:6NK?KP0?w@2000,0,0*04
$SDHDG,181.8,,,0.6,E*33
!AIVDM,1,1,1,,E>jN6<0W6@1WPab3bPa2@LtP0000:uoH?9Ur@00000000?,4,4*77
$SDHDG,181.8,,,0.6,E*33
!AIVDM,1,1,2,,E>jN6<0W6@1WPab3bPa2@LtP0000:uoH?9Ur@00000000?,4,4*74
$GPGGA,195740,5310.8119,N,00525.7022,E,1,00,1.10,-2,M,,M,,*50
$SDHDG,181.8,,,0.6,E*33
$GPGLL,5310.8119,N,00525.7022,E,195740,A,A*4A
$GPGSA,A,3,,,,,,,,,,,,,2.10,1.10,1.70*07
$GPGSV,3,1,10,02,10,039,,05,15,069,,10,05,017,,13,05,348,*77
$GPGSV,3,2,10,16,13,294,,21,36,173,,23,11,317,,25,38,118,*70
$GPGSV,3,3,10,29,69,069,,31,54,240,*76
!AIVDM,1,1,3,,13aMB<?016PGe5HNJr21p1I<2000,0,0*5C
$GPRMC,195740,A,5310.8119,N,00525.7022,E,0.1,0.0,160414,0.7,E,A*16
!AIVDM,1,1,4,,13`uO27P0LPHK2NNL4bTLSUB2000,0,0*1B
$GPVTG,0.0,T,359.3,M,0.1,N,0.2,K,A*2C
$GPZDA,195740,16,04,14,-02,00*6F
$GPAAM,,,,N,*38
$GPAPB,,,,,,,,,,,,,,,N*26
$SDHDG,181.8,,,0.6,E*33
$GPBOD,,T,,M,,*47
!AIVDM,1,1,5,,13aGFROP000Ho<tNKmP;w?wB0000,0,0*40
$GPRMB,,,,,,,,,,,,,,N*04
$GPXTE,,,,,N,N*5E
$SDDBT,1.8,f,0.5,M,0.3,F*09
!AIVDM,1,1,6,,13IOOb002<0HKB0NcW69uWo>0000,0,0*2D
$SDDPT,0.5,0.5,*7B
$SDMTW,12.6,C*01
$SDVLW,$SDVLW,,N,322.0,N,$SDVLW,$SDVLW,,N,322.0,N,2328.9,N,$SDVLW,$SDVLW,,N,322.0,N,$SDVLW,$SDVLW,,N,322.0,N,2328.9,N,2315.4,N*59
$SDVHW,182.5,T,181.8,M,0.0,N,0.0,K*4C
$WIMWD,125.5,T,124.8,M,3.7,N,1.9,M*5A
!AIVDM,1,1,7,,13aL?>HP00PHj5JNKAJ00?w@2000,0,0*73
$SDHDG,181.8,,,0.6,E*33
$WIMWV,292.6,R,3.7,N,A*28
$WIMWV,292.6,T,3.7,N,A*2E
$IIXDR,C,C,10.6,C,AIRTEMP,A,0.5,D,HEEL,A,-1.-3,D,TRIM,P,1.027,B,BARO,A,A,-4.-3,D,RUDDER*18
!AIVDM,1,1,8,,13P;h8hw2ePG`TdNc7g9sos<2000,0,0*60
$SDHDG,181.8,,,0.6,E*33
!AIVDM,1,1,9,,13b?AJ7P0P0J1:tNV6:U7gwB0000,0,0*30
!AIVDM,1,1,0,,13bQtf?P000Hf2>NFsL9hwwB0000,0,0*31
$SDHDG,181.8,,,0.6,E*33
!AIVDM,1,1,1,,102EFW3P000Hk`VNK`L`M?wB0000,0,0*65
!AIVDM,1,1,2,,13:krn000n0HNPTNH6R9>WI>0000,0,0*2F
$SDHDG,181.8,,,0.6,E*33
!AIVDM,1,1,3,,13aDA0PP00PHn3lNKRF00?wB2000,0,0*2E
$SDHDG,181.8,,,0.6,E*33
!AIVDM,1,1,4,,13aKVPHP00PHj5fNK8EP0?wB2000,0,0*48
$SDHDG,181.8,,,0.6,E*33
!AIVDM,1,1,5,,13aGDjCP00PHiQPNK9cckgw>2000,0,0*5C
!AIVDM,1,1,6,,13aDGp00000Gpq<NR;?7g8GD0000,0,0*64
$SDHDG,181.8,,,0.6,E*33
!AIVDM,1,1,7,,13`va@0P000HpJJNKnW93?wD0000,0,0*2B
!AIVDM,1,1,8,,16LWib003APEpaTNSgN2Oj1B2000,0,0*24
$SDHDG,181.8,,,0.6,E*33
!AIVDM,1,1,9,,13brCD00000HtKPNKFaS@CGD0000,0,0*31
$GPGGA,195741,5310.8119,N,00525.7022,E,1,00,1.10,-2,M,,M,,*51
$GPGLL,5310.8119,N,00525.7022,E,195741,A,A*4B
$GPGSA,A,3,,,,,,,,,,,,,2.10,1.10,1.70*07
$GPGSV,3,1,10,02,10,039,,05,15,069,,10,05,017,,13,05,348,*77
$GPGSV,3,2,10,16,13,294,,21,36,173,,23,11,317,,25,38,118,*70
$GPGSV,3,3,10,29,69,069,,31,54,240,*76
$SDHDG,181.8,,,0.6,E*33
$GPRMC,195741,A,5310.8119,N,00525.7022,E,0.0,0.0,160414,0.7,E,A*16
!AIVDM,1,1,0,,13aKWv?P000HjUjNK?vbfgwD0000,0,0*1C
$GPVTG,0.0,T,359.3,M,0.0,N,0.0,K,A*2F
$GPZDA,195741,16,04,14,-02,00*6E
!AIVDM,1,1,1,,13aGuu@P00PHq0:NKutPKgwB2000,0,0*52
$GPAAM,,,,N,*38
$GPAPB,,,,,,,,,,,,,,,N*26
$GPBOD,,T,,M,,*47
$GPRMB,,,,,,,,,,,,,,N*04
$GPXTE,,,,,N,N*5E
$SDDBT,1.9,f,0.5,M,0.3,F*08
$SDHDG,181.8,,,0.6,E*33
$SDDPT,0.5,0.5,*7B
$SDMTW,12.6,C*01
$SDVLW,$SDVLW,,N,322.0,N,$SDVLW,$SDVLW,,N,322.0,N,2328.9,N,$SDVLW,$SDVLW,,N,322.0,N,$SDVLW,$SDVLW,,N,322.0,N,2328.9,N,2315.4,N*59
$SDVHW,182.5,T,181.8,M,0.0,N,0.0,K*4C
$WIMWD,125.5,T,124.8,M,4.6,N,2.4,M*52
$WIMWV,292.6,R,4.6,N,A*2E
$WIMWV,292.6,T,4.6,N,A*28
$IIXDR,C,C,10.6,C,AIRTEMP,A,0.5,D,HEEL,A,-1.-3,D,TRIM,P,1.027,B,BARO,A,A,-4.-3,D,RUDDER*18
!AIVDM,1,1,2,,13aGFRwP000HnklNKlE:5?wD0000,0,0*60
$SDHDG,181.8,,,0.6,E*33
!AIVDM,1,1,3,,13b8s:001APKe6RNd`e:tpWB2000,0,0*35
$SDHDG,181.8,,,0.6,E*33
!AIVDM,1,1,4,,13btD>00000GqJ6NR>A8rnaD0000,0,0*39
$SDHDG,181.8,,,0.6,E*33
$SDHDG,181.8,,,0.6,E*33
$SDHDG,181.8,,,0.6,E*33
$SDHDG,181.8,,,0.6,E*33
$SDHDG,181.8,,,0.6,E*33
!AIVDM,1,1,5,,13b`Bv5P1HPHUD<NHb:Q5gwD2000,0,0*3F
!AIVDM,1,1,6,,13aFgJ?P00PHf8lNFsaP0?wD2000,0,0*74
$SDHDG,181.8,,,0.6,E*33
!AIVDM,1,1,7,,13aFgphP1DPHEMRNC3r78?wF2000,0,0*3E
$GPGGA,195742,5310.8119,N,00525.7022,E,1,00,1.10,-2,M,,M,,*52
$GPGLL,5310.8119,N,00525.7022,E,195742,A,A*48
$GPGSA,A,3,,,,,,,,,,,,,2.10,1.10,1.70*07
$GPGSV,3,1,10,02,10,039,,05,15,069,,10,05,017,,13,05,348,*77
$GPGSV,3,2,10,16,13,294,,21,36,173,,23,11,317,,25,38,118,*70
$GPGSV,3,3,10,29,69,069,,31,54,240,*76
$SDHDG,181.9,,,0.6,E*32
$GPRMC,195742,A,5310.8119,N,00525.7022,E,0.1,0.0,160414,0.7,E,A*14
$GPVTG,0.0,T,359.3,M,0.1,N,0.2,K,A*2C
$GPZDA,195742,16,04,14,-02,00*6D
!AIVDM,1,1,8,,13aBMu@P00PJK4jNEh500?wD2000,0,0*1D
$GPAAM,,,,N,*38
$GPAPB,,,,,,,,,,,,,,,N*26
$GPBOD,,T,,M,,*47
$GPRMB,,,,,,,,,,,,,,N*04
$GPXTE,,,,,N,N*5E
$SDDBT,1.9,f,0.5,M,0.3,F*08
!AIVDM,1,1,9,,13c0aT00000HJJ:NGeMWobiF0000,0,0*30
$SDDPT,0.5,0.5,*7B
$SDHDG,181.8,,,0.6,E*33
$SDMTW,12.6,C*01
$SDVLW,$SDVLW,,N,322.0,N,$SDVLW,$SDVLW,,N,322.0,N,2328.9,N,$SDVLW,$SDVLW,,N,322.0,N,$SDVLW,$SDVLW,,N,322.0,N,2328.9,N,2315.4,N*59
$SDVHW,182.5,T,181.8,M,0.0,N,0.0,K*4C
$WIMWD,125.3,T,124.7,M,4.6,N,2.4,M*5B
$WIMWV,299.8,R,4.6,N,A*2B
$WIMWV,299.8,T,4.6,N,A*2D
$IIXDR,C,C,10.7,C,AIRTEMP,A,0.5,D,HEEL,A,-1.-3,D,TRIM,P,1.027,B,BARO,A,A,-4.-3,D,RUDDER*19
!AIVDM,1,1,0,,13bt8P0P000HfWBNBq58mOwD0000,0,0*3D
$SDHDG,181.8,,,0.6,E*33
!AIVDM,1,1,1,,13aGCN8P00PHj8pNKB>;5wwF2000,0,0*02
$SDHDG,181.8,,,0.6,E*33
$SDHDG,181.8,,,0.6,E*33
!AIVDM,2,1,2,,53bC3V0000010@h6220<tiDl8T62Q0ThuBV2220j000002w002T2C3m80ShDQ2,0,2*08
!AIVDM,2,2,2,,CQp0DQ@H3,2,2*35
!AIVDM,1,1,3,,13`e=?HP00PHmI8NKBT00?wF2000,0,0*4E
$SDHDG,181.8,,,0.6,E*33
!AIVDM,1,1,4,,15C3:600000Gok4NQuDaVlCH0000,0,0*0E
$SDHDG,181.8,,,0.6,E*33
!AIVDM,2,1,5,,53bC3V0000010@h6220<tiDl8T62Q0ThuBV2220j000002w002T2C3m80ShDQ2,0,2*0F
!AIVDM,2,2,5,,CQp0DQ@H3,2,2*32
!AIVDM,1,1,6,,13aJH>OP00PGpVVNR0;b:wwH2000,0,0*6F
$SDHDG,181.8,,,0.6,E*33
!AIVDM,1,1,7,,13aL>vwP00PIMtJNKaJP0?wF2000,0,0*24
!AIVDM,1,1,8,,14h?6j003B0G;mVNVnm2MQwH0000,0,0*41
$SDHDG,181.8,,,0.6,E*33
!AIVDM,1,1,9,,13`qM>8P0gPGAiLNSJuS325H2000,0,0*61
!AIVDM,1,1,0,,13P<QQ@0000Hdg:NFpI0OrQF0000,0,0*3F
$SDHDG,181.8,,,0.6,E*33
$GPGGA,195743,5310.8119,N,00525.7023,E,1,00,1.10,-2,M,,M,,*52
!AIVDM,1,1,1,,13aDBD0P00PHj0>NKB;00?wF2000,0,0*07
$GPGLL,5310.8119,N,00525.7023,E,195743,A,A*48
$GPGSA,A,3,,,,,,,,,,,,,2.10,1.10,1.70*07
$GPGSV,3,1,10,02,10,039,,05,15,069,,10,05,017,,13,05,348,*77
$GPGSV,3,2,10,16,13,294,,21,36,173,,23,11,317,,25,38,118,*70
$GPGSV,3,3,10,29,69,069,,31,54,240,*76
$GPRMC,195743,A,5310.8119,N,00525.7023,E,0.0,0.0,160414,0.7,E,A*15
!AIVDM,1,1,2,,B3aDrlh0086:UpWUfo83;wP00000,0,0*56
$GPVTG,0.0,T,359.3,M,0.0,N,0.0,K,A*2F
$SDHDG,181.8,,,0.6,E*33
$GPZDA,195743,16,04,14,-02,00*6C
$GPAAM,,,,N,*38
$GPAPB,,,,,,,,,,,,,,,N*26
$GPBOD,,T,,M,,*47
$GPRMB,,,,,,,,,,,,,,N*04
$GPXTE,,,,,N,N*5E
$SDDBT,1.8,f,0.5,M,0.3,F*09
$SDDPT,0.5,0.5,*7B
!AIVDM,1,1,3,,13aR>V0000PHifJNK;<bmr;H2000,0,0*42
$SDMTW,12.6,C*01
$SDHDG,181.8,,,0.6,E*33
$SDVLW,$SDVLW,,N,322.0,N,$SDVLW,$SDVLW,,N,322.0,N,2328.9,N,$SDVLW,$SDVLW,,N,322.0,N,$SDVLW,$SDVLW,,N,322.0,N,2328.9,N,2315.4,N*59
$SDVHW,182.5,T,181.8,M,0.0,N,0.0,K*4C
$WIMWD,125.4,T,124.7,M,4.6,N,2.4,M*5C
$WIMWV,292.9,R,4.6,N,A*21
$WIMWV,292.9,T,4.6,N,A*27
$IIXDR,C,C,10.7,C,AIRTEMP,A,0.5,D,HEEL,A,-1.-3,D,TRIM,P,1.027,B,BARO,A,A,-4.-3,D,RUDDER*19
!AIVDM,1,1,4,,13aBLqgP00PHpRLNKQb00?wH2000,0,0*26
$SDHDG,181.8,,,0.6,E*33
!AIVDM,1,1,5,,13aph000000GrClNGNU0`mQH0000,0,0*19
$SDHDG,181.8,,,0.6,E*33
!AIVDM,1,1,6,,13cLV`001F0HNflNH5ua?oKJ0000,0,0*6B
$SDHDG,181.8,,,0.6,E*33
!AIVDM,1,1,7,,H3eMkoh8DhhF0@F0`uE800000000,0,0*27
!AIVDM,1,1,8,,H3eMkoh8DhhF0@F0`uE800000000,0,0*28
$SDHDG,181.8,,,0.6,E*33
!AIVDM,1,1,9,,13aI9j8P00PHit@NKG:00?wH2000,0,0*6C
$SDHDG,181.8,,,0.6,E*33
!AIVDM,1,1,0,,13aI;8gP00PHf14NFt500?wH2000,0,0*65
!AIVDM,1,1,1,,33`uO2700LPHK3VNL4WTPCUJ2000,0,0*54
$SDHDG,181.8,,,0.6,E*33
!AIVDM,1,1,2,,13aEQuOP00PHiv6NKCLP0?wH2000,0,0*0D
$SDHDG,181.8,,,0.6,E*33
!AIVDM,1,1,3,,13`j7c0000PG?:8NOgf:bTEJ2000,0,0*3F
!AIVDM,1,1,4,,13aIi<0P00PJKP0NTj`00?wH2000,0,0*73
$GPGGA,195744,5310.8119,N,00525.7023,E,1,00,1.10,-2,M,,M,,*55
$SDHDG,181.8,,,0.6,E*33
$GPGLL,5310.8119,N,00525.7023,E,195744,A,A*4F
$GPGSA,A,3,,,,,,,,,,,,,2.10,1.10,1.70*07
$GPGSV,3,1,10,02,10,039,,05,15,069,,10,05,017,,13,05,348,*77
$GPGSV,3,2,10,16,13,294,,21,36,173,,23,11,317,,25,38,118,*70
$GPGSV,3,3,10,29,69,069,,31,54,240,*76
$GPRMC,195744,A,5310.8119,N,00525.7023,E,0.1,0.0,160414,0.7,E,A*13
$GPVTG,0.0,T,359.3,M,0.1,N,0.2,K,A*2C
$GPZDA,195744,16,04,14,-02,00*6B
$GPAAM,,,,N,*38
$SDHDG,181.8,,,0.6,E*33
$GPAPB,,,,,,,,,,,,,,,N*26
$GPBOD,,T,,M,,*47
$GPRMB,,,,,,,,,,,,,,N*04
$GPXTE,,,,,N,N*5E
$SDDBT,1.8,f,0.5,M,0.3,F*09
$SDDPT,0.5,0.5,*7B
$SDMTW,12.6,C*01
$SDVLW,$SDVLW,,N,322.0,N,$SDVLW,$SDVLW,,N,322.0,N,2328.9,N,$SDVLW,$SDVLW,,N,322.0,N,$SDVLW,$SDVLW,,N,322.0,N,2328.9,N,2315.4,N*59
!AIVDM,1,1,5,,13b=DJ0P000Gp?pNQuuaqgwJ0000,0,0*60
$SDHDG,181.8,,,0.6,E*33
$SDVHW,182.5,T,181.8,M,0.0,N,0.0,K*4C
$WIMWD,125.1,T,124.5,M,4.6,N,2.4,M*5B
$WIMWV,301.7,R,4.6,N,A*24
$WIMWV,301.7,T,4.6,N,A*22
$IIXDR,C,C,10.7,C,AIRTEMP,A,0.5,D,HEEL,A,-1.-3,D,TRIM,P,1.027,B,BARO,A,A,-4.-3,D,RUDDER*19
$SDHDG,181.8,,,0.6,E*33
!AIVDM,1,1,6,,13aN1EgP0LPHBj>NI63eWwwJ2000,0,0*29
$SDHDG,181.8,,,0.6,E*33
$SDHDG,181.8,,,0.6,E*33
!AIVDM,1,1,7,,H3eMkolU0000000q82kiql2H:420,0,0*00
$SDHDG,181.8,,,0.6,E*33
!AIVDM,1,1,8,,H3eMkolU0000000q82kiql2H:420,0,0*0F
$SDHDG,181.8,,,0.6,E*33
!AIVDM,1,1,9,,13aB:Hh100PHjDvNKJi4fisJ2000,0,0*2E
!AIVDM,1,1,0,,E02E340W6@1WPab3bPa200000000:uoH?9Ur@00000000?,4,4*0E
$SDHDG,181.8,,,0.6,E*33
$SDHDG,181.8,,,0.6,E*33
!AIVDM,2,1,1,,53`vB;h000010?GK?T0lu8L4p40000000000000t3H8252w100B0DS2CQiC`80,0,2*4D
!AIVDM,2,2,1,,000000003,2,2*79
$GPGGA,195745,5310.8120,N,00525.7024,E,1,00,1.10,-2,M,,M,,*59
!AIVDM,1,1,2,,13aJGrOP00PGph:NR9g00?wJ2000,0,0*3D
$GPGLL,5310.8120,N,00525.7024,E,195745,A,A*43
$GPGSA,A,3,,,,,,,,,,,,,2.10,1.10,1.70*07
$GPGSV,3,1,10,02,10,039,,05,15,069,,10,05,017,,13,05,348,*77
$GPGSV,3,2,10,16,13,294,,21,36,173,,23,11,317,,25,38,118,*70
$GPGSV,3,3,10,29,69,069,,31,54,240,*76
$SDHDG,181.8,,,0.6,E*33
$GPRMC,195745,A,5310.8120,N,00525.7024,E,0.1,0.0,160414,0.7,E,A*1F
$GPVTG,0.0,T,359.3,M,0.1,N,0.2,K,A*2C
$GPZDA,195745,16,04,14,-02,00*6A
$GPAAM,,,,N,*38
$GPAPB,,,,,,,,,,,,,,,N*26
$GPBOD,,T,,M,,*47
$GPRMB,,,,,,,,,,,,,,N*04
!AIVDM,1,1,3,,E02E340W6@1WPab3bPa200000000:uoH?9Ur@00000000?,4,4*0D
$GPXTE,,,,,N,N*5E
$SDDBT,1.8,f,0.5,M,0.3,F*09
$SDHDG,181.8,,,0.6,E*33
$SDDPT,0.5,0.5,*7B
!AIVDM,1,1,4,,13aGua?P00PHfELNFrrP0?wJ2000,0,0*0F
$SDMTW,12.6,C*01
$SDVLW,$SDVLW,,N,322.0,N,$SDVLW,$SDVLW,,N,322.0,N,2328.9,N,$SDVLW,$SDVLW,,N,322.0,N,$SDVLW,$SDVLW,,N,322.0,N,2328.9,N,2315.4,N*59
$SDVHW,182.5,T,181.8,M,0.0,N,0.0,K*4C
$WIMWD,125.1,T,124.4,M,4.6,N,2.4,M*5A
$WIMWV,306.4,R,4.6,N,A*20
$WIMWV,306.4,T,4.6,N,A*26
$IIXDR,C,C,10.7,C,AIRTEMP,A,0.5,D,HEEL,A,-1.-3,D,TRIM,P,1.027,B,BARO,A,A,-4.-3,D,RUDDER*19
!AIVDM,1,1,5,,13aL<SPP00PJG<fNKufP0?wL2000,0,0*79
$SDHDG,181.8,,,0.6,E*33
!AIVDM,1,1,6,,13`vB;pP00PHMLhNGI7drgwL2000,0,0*4E
!AIVDM,1,1,7,,15Q:RP002g0FS18N`t2afWkJ0000,0,0*41
$SDHDG,181.8,,,0.6,E*33
!AIVDM,2,1,8,,53bjvT02:`Cu0M<V221TFoGJ10TE@E:22222220N3h:442w000000000000000,0,2*21
!AIVDM,2,2,8,,000000003,2,2*70
$SDHDG,181.8,,,0.6,E*33
!AIVDM,1,1,9,,13aI;8wP00PHJAbNGgKP0?wL2000,0,0*7E
$SDHDG,181.8,,,0.6,E*33
!AIVDM,1,1,0,,13aIkM@P00PJ@odNL=eP0?wL2000,0,0*3A
!AIVDM,1,1,1,,13IOOb002<0HK8VNcVe9mooH0000,0,0*32
$SDHDG,181.8,,,0.6,E*33
$SDHDG,181.8,,,0.6,E*33
$SDHDG,181.8,,,0.6,E*33
!AIVDM,1,1,2,,102EFW3P000Hk`bNK`O`O?wN0000,0,0*5F
!AIVDM,1,1,3,,15C78000000Goh>NQun:;m?N0000,0,0*67
!AIVDM,1,1,4,,13a6ld0P000HpmTNL1`P09eN0000,0,0*62
$SDHDG,181.8,,,0.6,E*33
$GPGGA,195746,5310.8120,N,00525.7026,E,1,00,1.10,-2,M,,M,,*58
$GPGLL,5310.8120,N,00525.7026,E,195746,A,A*42
$GPGSA,A,3,,,,,,,,,,,,,2.10,1.10,1.70*07
$GPGSV,3,1,10,02,10,039,,05,15,069,,10,05,017,,13,05,348,*77
$GPGSV,3,2,10,16,13,294,,21,36,173,,23,11,317,,25,38,118,*70
$GPGSV,3,3,10,29,69,069,,31,54,240,*76
!AIVDM,1,1,5,,13aFfb0P00PJgQ2NFp6P0?wL2000,0,0*39
$GPRMC,195746,A,5310.8120,N,00525.7026,E,0.1,0.0,160414,0.7,E,A*1E
$SDHDG,181.8,,,0.6,E*33
$GPVTG,0.0,T,359.3,M,0.1,N,0.2,K,A*2C
$GPZDA,195746,16,04,14,-02,00*69
$GPAAM,,,,N,*38
!AIVDM,1,1,6,,33aGuEPP00PJL2NNTkTaswwN2000,0,0*0A
$GPAPB,,,,,,,,,,,,,,,N*26
$GPBOD,,T,,M,,*47
$GPRMB,,,,,,,,,,,,,,N*04
$GPXTE,,,,,N,N*5E
$SDDBT,1.8,f,0.5,M,0.3,F*09
$SDDPT,0.5,0.5,*7B
!AIVDM,1,1,7,,13b<2H7000PHkGpNKT27MPUL2000,0,0*7B
$SDHDG,181.8,,,0.6,E*33
$SDMTW,12.6,C*01
$SDVLW,$SDVLW,,N,322.0,N,$SDVLW,$SDVLW,,N,322.0,N,2328.9,N,$SDVLW,$SDVLW,,N,322.0,N,$SDVLW,$SDVLW,,N,322.0,N,2328.9,N,2315.4,N*59
!AIVDM,1,1,8,,33`qM>8P0gPGAkPNSK02wioN2000,0,0*1A
$SDVHW,182.5,T,181.8,M,0.0,N,0.0,K*4C
$WIMWD,125.1,T,124.5,M,4.6,N,2.4,M*5B
$WIMWV,296.7,R,4.6,N,A*2B
$WIMWV,296.7,T,4.6,N,A*2D
$IIXDR,C,C,10.7,C,AIRTEMP,A,0.5,D,HEEL,A,-1.-3,D,TRIM,P,1.027,B,BARO,A,A,-4.-3,D,RUDDER*19
$SDHDG,181.8,,,0.6,E*33
!AIVDM,1,1,9,,33`uO2700LPHK4dNL4V4QSWN2000,0,0*1F
$SDHDG,181.8,,,0.6,E*33
!AIVDM,1,1,0,,15E<fj002UPIMoPNbQR2hB9P2000,0,0*6A
$SDHDG,181.8,,,0.6,E*33
!AIVDM,1,1,1,,13bNqJ0P1BPFhppNJvi02?wP2000,0,0*31
!AIVDM,1,1,2,,13aDr68P00PHj3DNKAGP0?wN2000,0,0*20
!AIVDM,1,1,3,,16LWib003APEpoDNSgsROj1L2000,0,0*62
$SDHDG,181.8,,,0.6,E*33
!AIVDM,1,1,4,,13a?OH?00OPH>f0NM1TUNT?P2000,0,0*50
!AIVDM,1,1,5,,13aC2`wP0hPHJN8NGfs71OwP2000,0,0*17
$SDHDG,181.8,,,0.6,E*33
$SDHDG,181.8,,,0.6,E*33
!AIVDM,1,1,6,,13aGvAh0000I11VNQQs`M61P0000,0,0*6E
$SDHDG,181.8,,,0.6,E*33
!AIVDM,1,1,7,,13`fJDh0000Epp@NE2T4TIwL0000,0,0*54
!AIVDM,1,1,8,,13aDrkOP00PHi>tNKB0UpgwN2000,0,0*57
$SDHDG,181.8,,,0.6,E*33
$GPGGA,195747,5310.8121,N,00525.7027,E,1,00,1.10,-2,M,,M,,*59
!AIVDM,1,1,9,,13P;h8h12ePG`ClNc7H9sosJ2000,0,0*61
$GPGLL,5310.8121,N,00525.7027,E,195747,A,A*43
$GPGSA,A,3,,,,,,,,,,,,,2.10,1.10,1.70*07
$GPGSV,3,1,10,02,10,039,,05,15,069,,10,05,017,,13,05,347,*78
$GPGSV,3,2,10,16,13,294,,21,36,173,,23,11,316,,25,37,118,*7E
$GPGSV,3,3,10,29,69,069,,31,54,240,*76
$GPRMC,195747,A,5310.8121,N,00525.7027,E,0.1,0.0,160414,0.7,E,A*1F
$GPVTG,0.0,T,359.3,M,0.1,N,0.2,K,A*2C
$SDHDG,181.8,,,0.6,E*33
$GPZDA,195747,16,04,14,-02,00*68
$GPAAM,,,,N,*38
$GPAPB,,,,,,,,,,,,,,,N*26
$GPBOD,,T,,M,,*47
$GPRMB,,,,,,,,,,,,,,N*04
$GPXTE,,,,,N,N*5E
$SDDBT,1.9,f,0.5,M,0.3,F*08
$SDDPT,0.5,0.5,*7B
$SDMTW,12.6,C*01
$SDHDG,181.8,,,0.6,E*33
$SDVLW,$SDVLW,,N,322.0,N,$SDVLW,$SDVLW,,N,322.0,N,2328.9,N,$SDVLW,$SDVLW,,N,322.0,N,$SDVLW,$SDVLW,,N,322.0,N,2328.9,N,2315.4,N*59
$SDVHW,182.5,T,181.8,M,0.0,N,0.0,K*4C
$WIMWD,125.0,T,124.3,M,3.7,N,1.9,M*54
!AIVDM,1,1,0,,13aBLqhP000JbdnNLCs00?wL0000,0,0*4B
$WIMWV,297.3,R,3.7,N,A*28
$WIMWV,297.3,T,3.7,N,A*2E
$IIXDR,C,C,10.7,C,AIRTEMP,A,0.5,D,HEEL,A,-1.-3,D,TRIM,P,1.027,B,BARO,A,A,-4.-3,D,RUDDER*19
$SDHDG,181.8,,,0.6,E*33
!AIVDM,1,1,1,,13aEOEPP00PHm@bNK`j;T?vf2000,0,0*7C
$SDHDG,181.8,,,0.6,E*33
$SDHDG,181.8,,,0.6,E*33
$SDHDG,181.8,,,0.6,E*33
!AIVDM,1,1,2,,13aDCUhP00PJ;@rNTprcGOwP2000,0,0*05
$SDHDG,181.8,,,0.6,E*33
$SDHDG,181.8,,,0.6,E*33
$SDHDG,181.8,,,0.6,E*33
!AIVDM,1,1,3,,13aDBd8P00PHiw6NKC000?wP2000,0,0*7D
$SDHDG,181.8,,,0.6,E*33
$GPGGA,195748,5310.8120,N,00525.7027,E,1,00,1.10,-2,M,,M,,*57
$GPGLL,5310.8120,N,00525.7027,E,195748,A,A*4D
$GPGSA,A,3,,,,,,,,,,,,,2.10,1.10,1.70*07
$GPGSV,3,1,10,02,10,039,,05,15,069,,10,05,017,,13,05,347,*78
$GPGSV,3,2,10,16,13,294,,21,36,173,,23,11,316,,25,37,118,*7E
$GPGSV,3,3,10,29,69,069,,31,54,240,*76
$GPRMC,195748,A,5310.8120,N,00525.7027,E,0.1,0.0,160414,0.7,E,A*11
$GPVTG,0.0,T,359.3,M,0.1,N,0.2,K,A*2C
$GPZDA,195748,16,04,14,-02,00*67
$SDHDG,181.8,,,0.6,E*33
$GPAAM,,,,N,*38
$GPAPB,,,,,,,,,,,,,,,N*26
!AIVDM,2,1,4,,53aJJN@000010CSW3<1`DDPtpB2222200000000t10I441jC00800000000000,0,2*37
!AIVDM,2,2,4,,000000003,2,2*7C
$GPBOD,,T,,M,,*47
$GPRMB,,,,,,,,,,,,,,N*04
$GPXTE,,,,,N,N*5E
$SDDBT,1.9,f,0.5,M,0.3,F*08
$SDDPT,0.5,0.5,*7B
$SDMTW,12.6,C*01
!AIVDM,1,1,5,,13aGFvwP00PHi3RNKCM00?wP2000,0,0*7C
$SDVLW,$SDVLW,,N,322.0,N,$SDVLW,$SDVLW,,N,322.0,N,2328.9,N,$SDVLW,$SDVLW,,N,322.0,N,$SDVLW,$SDVLW,,N,322.0,N,2328.9,N,2315.4,N*59
$SDHDG,181.8,,,0.6,E*33
$SDVHW,182.5,T,181.8,M,0.0,N,0.0,K*4C
$WIMWD,125.0,T,124.3,M,4.6,N,2.4,M*5C
$WIMWV,296.4,R,4.6,N,A*28
$WIMWV,296.4,T,4.6,N,A*2E
$IIXDR,C,C,10.6,C,AIRTEMP,A,0.5,D,HEEL,A,-1.-3,D,TRIM,P,1.027,B,BARO,A,A,-4.-3,D,RUDDER*18
$SDHDG,181.8,,,0.6,E*33
$SDHDG,181.8,,,0.6,E*33
!AIVDM,1,1,6,,13c1LF0P0c0HlaJNRAJSHgwP0000,0,0*57
$SDHDG,181.8,,,0.6,E*33
!AIVDM,1,1,7,,13aENfwP00PHi:6NK?K7tOwR2000,0,0*42
!AIVDM,1,1,8,,13bjvT?0000H55vNQghQGb5R0000,0,0*69
$SDHDG,181.8,,,0.6,E*33
!AIVDM,1,1,9,,13aL?>HP00PHj5lNKAM00?wR2000,0,0*4E
$SDHDG,181.8,,,0.6,E*33
!AIVDM,1,1,0,,E02E381`60b37a6h6Lh@@@@@@@@0;FdI?EdeP00000000?,4,4*2A
$SDHDG,181.8,,,0.6,E*33
$SDHDG,181.8,,,0.6,E*33
!AIVDM,1,1,1,,14h?6j003C0G<68NVoM2MQuT0000,0,0*44
$GPGGA,195749,5310.8122,N,00525.7031,E,1,00,1.20,-2,M,,M,,*50
$GPGLL,5310.8122,N,00525.7031,E,195749,A,A*49
$GPGSA,A,3,,,,,,,,,,,,,2.20,1.20,1.80*08
$GPGSV,3,1,10,02,10,039,,05,15,069,,10,05,017,,13,05,347,*78
$GPGSV,3,2,10,16,13,294,,21,36,173,,23,11,316,,25,37,118,*7E
$GPGSV,3,3,10,29,69,069,,31,54,240,*76
!AIVDM,1,1,2,,13b<Q`700R0J7AvNWpU3PjeP0000,0,0*3B
$SDHDG,181.8,,,0.6,E*33
$GPRMC,195749,A,5310.8122,N,00525.7031,E,0.1,0.0,160414,0.7,E,A*15
!AIVDM,1,1,3,,13cDbl0P200J?LjNfCq9mGn80000,0,0*3D
$GPVTG,0.0,T,359.3,M,0.1,N,0.2,K,A*2C
$GPZDA,195749,16,04,14,-02,00*66
$GPAAM,,,,N,*38
$GPAPB,,,,,,,,,,,,,,,N*26
$GPBOD,,T,,M,,*47
$GPRMB,,,,,,,,,,,,,,N*04
$GPXTE,,,,,N,N*5E
$SDDBT,1.9,f,0.5,M,0.3,F*08
$SDDPT,0.5,0.5,*7B
$SDHDG,181.8,,,0.6,E*33
$SDMTW,12.6,C*01
$SDVLW,$SDVLW,,N,322.0,N,$SDVLW,$SDVLW,,N,322.0,N,2328.9,N,$SDVLW,$SDVLW,,N,322.0,N,$SDVLW,$SDVLW,,N,322.0,N,2328.9,N,2315.4,N*59
$SDVHW,182.5,T,181.8,M,0.0,N,0.0,K*4C
$WIMWD,125.4,T,124.7,M,3.7,N,1.9,M*54
$WIMWV,318.5,R,3.7,N,A*28
$WIMWV,318.5,T,3.7,N,A*2E
$SDHDG,181.8,,,0.6,E*33
$IIXDR,C,C,10.7,C,AIRTEMP,A,0.5,D,HEEL,A,-1.-3,D,TRIM,P,1.027,B,BARO,A,A,-4.-3,D,RUDDER*19
!AIVDM,1,1,4,,13aI8e?P00PGpUbNR6tP0?wT2000,0,0*27
$SDHDG,181.8,,,0.6,E*33
$SDHDG,181.8,,,0.6,E*33
!AIVDM,2,1,5,,53aGFRh000010CKC7N1@PDv2222222222222220l0`=422w100820DS2CQiC`8,0,2*3D
!AIVDM,2,2,5,,888888883,2,2*7D
$SDHDG,181.8,,,0.6,E*33
!AIVDM,1,1,6,,13bHGL?P0J0HMl@NU@mRhOwV0000,0,0*00
!AIVDM,1,1,7,,13`uO2700KPHK5lNL4RTRSWV2000,0,0*62
!AIVDM,1,1,8,,E>jN6<0W6@1WPab3bPa2@LtP0000:uoH?9Ur@00000000?,4,4*7E
$SDHDG,181.8,,,0.6,E*33
!AIVDM,1,1,9,,13bh6v70000HjCTNKOB`v4qV0000,0,0*05
!AIVDM,1,1,0,,13:krn000m0HNJ`NH6>a>WIP0000,0,0*5A
$SDHDG,181.8,,,0.6,E*33
!AIVDM,1,1,1,,13aIi0gP000HkKjNKQ@aLOwV0000,0,0*6B
$SDHDG,181.8,,,0.6,E*33
$SDHDG,181.8,,,0.6,E*33
$GPGGA,195750,5310.8123,N,00525.7035,E,1,00,1.10,-2,M,,M,,*5E
$GPGLL,5310.8123,N,00525.7035,E,195750,A,A*44
$GPGSA,A,3,,,,,,,,,,,,,2.00,1.10,1.70*06
$GPGSV,3,1,10,02,10,039,,05,15,069,,10,05,017,,13,05,347,*78
$GPGSV,3,2,10,16,13,294,,21,36,173,,23,11,316,,25,37,118,*7E
$GPGSV,3,3,10,29,69,069,,31,54,240,*76
$GPRMC,195750,A,5310.8123,N,00525.7035,E,0.0,0.0,160414,0.7,E,A*19
$GPVTG,0.0,T,359.3,M,0.0,N,0.0,K,A*2F
$SDHDG,181.8,,,0.6,E*33
$GPZDA,195750,16,04,14,-02,00*6E
$GPAAM,,,,N,*38
!AIVDM,1,1,2,,H3`j54h`4LE80000000000000000,0,0*34
!AIVDM,1,1,3,,H3`j54h`4LE80000000000000000,0,0*35
$GPAPB,,,,,,,,,,,,,,,N*26
$GPBOD,,T,,M,,*47
$GPRMB,,,,,,,,,,,,,,N*04
$GPXTE,,,,,N,N*5E
$SDDBT,1.9,f,0.5,M,0.3,F*08
$SDDPT,0.5,0.5,*7B
!AIVDM,1,1,4,,13aGD7pP0?0Ho@@NKnPR4OwL0000,0,0*09
$SDMTW,12.6,C*01
$SDHDG,181.8,,,0.6,E*33
$SDVLW,$SDVLW,,N,322.0,N,$SDVLW,$SDVLW,,N,322.0,N,2328.9,N,$SDVLW,$SDVLW,,N,322.0,N,$SDVLW,$SDVLW,,N,322.0,N,2328.9,N,2315.4,N*59
$SDVHW,182.5,T,181.8,M,0.0,N,0.0,K*4C
!AIVDM,1,1,5,,13`va@0P000HpJLNKnW`v?wV0000,0,0*21
$WIMWD,126.2,T,125.5,M,3.7,N,1.9,M*52
$WIMWV,321.5,R,3.7,N,A*22
$WIMWV,321.5,T,3.7,N,A*24
$IIXDR,C,C,10.7,C,AIRTEMP,A,0.5,D,HEEL,A,-1.-3,D,TRIM,P,1.027,B,BARO,A,A,-4.-3,D,RUDDER*19
$SDHDG,181.8,,,0.6,E*33
$SDHDG,181.8,,,0.6,E*33
!AIVDM,1,1,6,,33aGuu@P00PHq0JNKutP0?wV2000,0,0*10
$SDHDG,181.8,,,0.6,E*33
!AIVDM,1,1,7,,13bQtf?P000Hf1NNFsR9hww`0000,0,0*79
!AIVDM,1,1,8,,13b?AJ7P0Q0J1?0NV5q57gwT0000,0,0*4F
!AIVDM,1,1,9,,13aMB<?018PGe=pNJr`1mAIR2000,0,0*39
$SDHDG,181.8,,,0.6,E*33
!AIVDM,1,1,0,,H3`j54lU0000000@7pnoj01p1220,0,0*2E
!AIVDM,1,1,1,,H3`j54lU0000000@7pnoj01p1220,0,0*2F
$SDHDG,181.8,,,0.6,E*33
!AIVDM,1,1,2,,13aKWv?P000HjUfNK?wbegw`0000,0,0*34
!AIVDM,1,1,3,,13aDo:@P00PJ2h8NEeI7=gwV2000,0,0*3B
$SDHDG,181.8,,,0.6,E*33
!AIVDM,1,1,4,,13aGDjCP00PHiQDNK9cckgwR2000,0,0*25
$SDHDG,181.8,,,0.6,E*33
!AIVDM,1,1,5,,15Q:RP002g0FReJN`sP9fWkV0000,0,0*45
!AIVDM,1,1,6,,13aKVPHP00PHj5dNK8E00?wV2000,0,0*3C
$GPGGA,195751,5310.8124,N,00525.7035,E,1,00,1.10,-2,M,,M,,*58
$GPGLL,5310.8124,N,00525.7035,E,195751,A,A*42
$SDHDG,181.8,,,0.6,E*33
$GPGSA,A,3,,,,,,,,,,,,,2.00,1.10,1.70*06
$GPGSV,3,1,10,02,10,039,,05,15,069,,10,05,017,,13,05,347,*78
$GPGSV,3,2,10,16,13,294,,21,36,173,,23,11,316,,25,37,118,*7E
$GPGSV,3,3,10,29,69,069,,31,54,240,*76
$GPRMC,195751,A,5310.8124,N,00525.7035,E,0.1,0.0,160414,0.7,E,A*1E
$GPVTG,0.0,T,359.3,M,0.1,N,0.2,K,A*2C
$GPZDA,195751,16,04,14,-02,00*6F
!AIVDM,1,1,7,,13aGFROP000Ho<BNKmRbr?w`0000,0,0*08
$GPAAM,,,,N,*38
$GPAPB,,,,,,,,,,,,,,,N*26
$SDHDG,181.8,,,0.6,E*33
$GPBOD,,T,,M,,*47
$GPRMB,,,,,,,,,,,,,,N*04
$GPXTE,,,,,N,N*5E
$SDDBT,1.9,f,0.6,M,0.3,F*0B
$SDDPT,0.6,0.5,*78
$SDMTW,12.6,C*01
$SDVLW,$SDVLW,,N,322.0,N,$SDVLW,$SDVLW,,N,322.0,N,2328.9,N,$SDVLW,$SDVLW,,N,322.0,N,$SDVLW,$SDVLW,,N,322.0,N,2328.9,N,2315.4,N*59
!AIVDM,1,1,8,,13`e=?HP00PHmI6NKBT00?wV2000,0,0*5B
$SDVHW,182.5,T,181.8,M,0.0,N,0.0,K*4C
$SDHDG,181.8,,,0.6,E*33
$WIMWD,126.9,T,126.3,M,3.7,N,1.9,M*5C
$WIMWV,304.0,R,3.7,N,A*20
$WIMWV,304.0,T,3.7,N,A*26
$IIXDR,C,C,10.7,C,AIRTEMP,A,0.5,D,HEEL,A,-1.-3,D,TRIM,P,1.027,B,BARO,A,A,-4.-3,D,RUDDER*19
!AIVDM,1,1,9,,13btD>00000GqJ4NR>AaeVa`0000,0,0*64
$SDHDG,181.7,,,0.6,E*3C
$SDHDG,181.7,,,0.6,E*3C
!AIVDM,1,1,0,,13aDA0PP00PHn3rNKRFP0?w`2000,0,0*71
$SDHDG,181.7,,,0.6,E*3C
!AIVDM,1,1,1,,13brCD00000HtKVNKFaS@CG`0000,0,0*1B
!AIVDM,1,1,2,,13aBMu@P00PJK4`NEh4P0?w`2000,0,0*58
$SDHDG,181.7,,,0.6,E*3C
!AIVDM,1,1,3,,102EFW3P000Hk`bNK`O`Pwwb0000,0,0*25
!AIVDM,1,1,4,,13aBJp700N0G`I<NSg<2jR;b0000,0,0*5A
$SDHDG,181.7,,,0.6,E*3C
!AIVDM,1,1,5,,13aFgJ?P00PHf8pNFsb00?w`2000,0,0*2C
$SDHDG,181.7,,,0.6,E*3C
$SDHDG,181.7,,,0.6,E*3C
!AIVDM,1,1,6,,13c0aT00000HJJ>NGeM8PJib0000,0,0*67
$GPGGA,195752,5310.8124,N,00525.7034,E,1,00,1.10,-2,M,,M,,*5A
!AIVDM,1,1,7,,13aGFRwP000HnkfNKlGWCgwb0000,0,0*08
$GPGLL,5310.8124,N,00525.7034,E,195752,A,A*40
$GPGSA,A,3,,,,,,,,,,,,,2.00,1.10,1.70*06
$GPGSV,3,1,10,02,10,039,,05,15,069,,10,05,017,,13,05,347,*78
$GPGSV,3,2,10,16,13,294,,21,36,173,,23,11,316,,25,37,118,*7E
$GPGSV,3,3,10,29,69,069,,31,54,240,*76
