$IIVHW,,T,,M,06.11,N,11.31,K*51
$IIVPW,4.71,N,,*03
$IIVTG,224.44,T,224.44,M,5.81,N,,,D*68
$IIMWV,338,R,13.41,N,A*2C
$IIVWT,039,L,08.10,N,04.17,M,,*2B
$IIHDT,,T*0C
$GPWCV,,N,,D*5F
$GPXTE,A,A,,R,N,D*06
$GPZDA,095559,,,,00,*4D
$IIDBT,034.25,f,010.44,M,005.64,F*27
$GPGLL,6005.071,N,02332.346,E,095559,A,D*43
$GPGSV,,,,,,,,,,,,,,,,,,,*79
$IIHDM,,M*0C
$IIHDT,,T*0C
$IIMWD,,,,,08.16,N,04.20,M*54
$IIVDR,,,,,,N*0E
$IIVHW,,T,,M,06.12,N,11.33,K*50
$IIVPW,4.17,N,,*03
$IIVTG,225.18,T,225.18,M,5.80,N,,,D*69
$IIMWV,313,T,08.16,N,A*2B
$IIVWT,047,L,08.16,N,04.20,M,,*20
$IIHDT,,T*0C
$GPWCV,,N,,D*5F
$GPXTE,A,A,,R,N,D*06
$GPZDA,095601,,,,00,*43
$IIDBT,034.31,f,010.46,M,005.65,F*21
$GPGLL,6005.068,N,02332.341,E,095601,A,D*42
$GPGSV,,,,,,,,,,,,,,,,,,,*79
$IIHDM,,M*0C
$IIHDT,,T*0C
$IIMWD,,,,,07.67,N,03.95,M*54
$IIVDR,,,,,,N*0E
$IIVHW,,T,,M,06.13,N,11.35,K*57
$IIVPW,4.46,N,,*07
$IIVTG,226.95,T,226.95,M,5.80,N,,,D*69
$IIMWV,336,R,12.82,N,A*2C
$IIVWT,043,L,07.58,N,03.90,M,,*2D
$IIHDT,,T*0C
$GPWCV,,N,,D*5F
$GPXTE,A,A,,R,N,D*06
$GPZDA,095603,,,,00,*41
$IIDBT,034.28,f,010.45,M,005.64,F*2B
$GPGLL,6005.066,N,02332.336,E,095603,A,D*4E
$GPGSV,,,,,,,,,,,,,,,,,,,*79
$IIHDM,,M*0C
$IIHDT,,T*0C
$IIMWD,,,,,07.60,N,03.91,M*57
$IIVDR,,,,,,N*0E
$IIVHW,,T,,M,06.11,N,11.31,K*51
$IIVPW,4.56,N,,*06
$IIVTG,228.83,T,228.83,M,5.88,N,,,D*61
$IIMWV,318,T,07.61,N,A*2F
$IIVWT,042,L,07.61,N,03.92,M,,*24
$IIHDT,,T*0C
$GPWCV,,N,,D*5F
$GPXTE,A,A,,R,N,D*06
$GPZDA,095605,,,,00,*47
$IIDBT,034.31,f,010.46,M,005.65,F*21
$GPGLL,6005.064,N,02332.331,E,095605,A,D*4D
$GPGSV,,,,,,,,,,,,,,,,,,,*79
$IIHDM,,M*0C
$IIHDT,,T*0C
$IIMWD,,,,,08.00,N,04.12,M*52
$IIVDR,,,,,,N*0E
$IIVHW,,T,,M,06.11,N,11.31,K*51
$IIVPW,4.52,N,,*02
$IIVTG,229.18,T,229.18,M,5.89,N,,,D*60
$IIMWV,336,R,13.41,N,A*22
$IIVWT,042,L,08.24,N,04.24,M,,*20
$IIHDT,,T*0C
$GPWCV,,N,,D*5F
$GPXTE,A,A,,R,N,D*06
$GPZDA,095607,,,,00,*45
$IIDBT,034.31,f,010.46,M,005.65,F*21
$GPGLL,6005.062,N,02332.326,E,095607,A,D*4F
$GPGSV,,,,,,,,,,,,,,,,,,,*79
$IIHDM,,M*0C
$IIHDT,,T*0C
$IIMWD,,,,,07.95,N,04.09,M*5B
$IIVDR,,,,,,N*0E
$IIVHW,,T,,M,06.11,N,11.31,K*51
$IIVPW,4.54,N,,*04
$IIVTG,228.52,T,228.52,M,5.90,N,,,D*68
$IIMWV,318,T,07.93,N,A*22
$IIVWT,042,L,07.93,N,04.08,M,,*2D
$IIHDT,,T*0C
$GPWCV,,N,,D*5F
$GPXTE,A,A,,R,N,D*06
$GPZDA,095609,,,,00,*4B
$IIDBT,034.41,f,010.49,M,005.67,F*2B
$GPGLL,6005.060,N,02332.321,E,095609,A,D*44
$GPGSV,,,,,,,,,,,,,,,,,,,*79
$IIHDM,,M*0C
$IIHDT,,T*0C
$IIMWD,,,,,07.60,N,03.91,M*57
$IIVDR,,,,,,N*0E
$IIVHW,,T,,M,06.11,N,11.31,K*51
$IIVPW,4.68,N,,*0B
$IIVTG,228.85,T,228.85,M,5.82,N,,,D*6B
$IIMWV,337,R,12.82,N,A*2D
$IIVWT,041,L,07.56,N,03.89,M,,*29
$IIHDT,,T*0C
$GPWCV,,N,,D*5F
$GPXTE,A,A,,R,N,D*06
$GPZDA,095611,,,,00,*42
$IIDBT,034.41,f,010.49,M,005.67,F*2B
$GPGLL,6005.058,N,02332.317,E,095611,A,D*43
$GPGSV,,,,,,,,,,,,,,,,,,,*79
$IIHDM,,M*0C
$IIHDT,,T*0C
$IIMWD,,,,,07.95,N,04.09,M*5B
$IIVDR,,,,,,N*0E
$IIVHW,,T,,M,06.10,N,11.29,K*59
$IIVPW,4.78,N,,*0A
$IIVTG,229.61,T,229.61,M,5.88,N,,,D*61
$IIMWV,318,T,07.98,N,A*29
$IIVWT,042,L,07.98,N,04.11,M,,*2E
$IIHDT,,T*0C
$GPWCV,,N,,D*5F
$GPXTE,A,A,,R,N,D*06
$GPZDA,095613,,,,00,*40
$IIDBT,034.44,f,010.50,M,005.67,F*26
$GPGLL,6005.056,N,02332.312,E,095613,A,D*4A
$GPGSV,,,,,,,,,,,,,,,,,,,*79
$IIHDM,,M*0C
$IIHDT,,T*0C
$IIMWD,,,,,08.16,N,04.20,M*54
$IIVDR,,,,,,N*0E
$IIVHW,,T,,M,06.08,N,11.26,K*5F
$IIVPW,4.73,N,,*01
$IIVTG,229.43,T,229.43,M,5.90,N,,,D*68
$IIMWV,339,R,13.21,N,A*2B
$IIVWT,038,L,07.79,N,04.01,M,,*2D
$IIHDT,,T*0C
$GPWCV,,N,,D*5F
$GPXTE,A,A,,R,N,D*06
$GPZDA,095615,,,,00,*46
$IIDBT,034.51,f,010.52,M,005.68,F*2F
$GPGLL,6005.053,N,02332.307,E,095615,A,D*4D
$GPGSV,,,,,,,,,,,,,,,,,,,*79
$IIHDM,,M*0C
$IIHDT,,T*0C
$IIMWD,,,,,08.06,N,04.15,M*53
$IIVDR,,,,,,N*0E
$IIVHW,,T,,M,06.09,N,11.27,K*5F
$IIVPW,4.83,N,,*0E
$IIVTG,227.70,T,227.70,M,5.92,N,,,D*6A
$IIMWV,319,T,08.14,N,A*23
$IIVWT,041,L,08.14,N,04.19,M,,*2E
$IIHDT,,T*0C
$GPWCV,,N,,D*5F
$GPXTE,A,A,,R,N,D*06
$GPZDA,095617,,,,00,*44
$IIDBT,034.61,f,010.55,M,005.70,F*22
$GPGLL,6005.051,N,02332.302,E,095617,A,D*48
$GPGSV,,,,,,,,,,,,,,,,,,,*79
$IIHDM,,M*0C
$IIHDT,,T*0C
$IIMWD,,,,,08.31,N,04.28,M*59
$IIVDR,,,,,,N*0E
$IIVHW,,T,,M,06.08,N,11.26,K*5F
$IIVPW,5.05,N,,*01
$IIVTG,225.58,T,225.58,M,5.91,N,,,D*69
$IIMWV,340,R,14.19,N,A*29
$IIVWT,034,L,08.74,N,04.50,M,,*27
$IIHDT,,T*0C
$GPWCV,,N,,D*5F
$GPXTE,A,A,,R,N,D*06
$GPZDA,095619,,,,00,*4A
$IIDBT,034.71,f,010.58,M,005.71,F*2F
$GPGLL,6005.049,N,02332.298,E,095619,A,D*4D
$GPGSV,,,,,,,,,,,,,,,,,,,*79
$IIHDM,,M*0C
$IIHDT,,T*0C
$IIMWD,,,,,08.31,N,04.28,M*59
$IIVDR,,,,,,N*0E
$IIVHW,,T,,M,06.07,N,11.24,K*52
$IIVPW,5.04,N,,*00
$IIVTG,224.17,T,224.17,M,5.90,N,,,D*68
$IIMWV,326,T,08.33,N,A*2A
$IIVWT,034,L,08.33,N,04.29,M,,*2A
$IIHDT,,T*0C
$GPWCV,,N,,D*5F
$GPXTE,A,A,,R,N,D*06
$GPZDA,095621,,,,00,*41
$IIDBT,034.77,f,010.60,M,005.72,F*21
$GPGLL,6005.046,N,02332.293,E,095621,A,D*42
$GPGSV,,,,,,,,,,,,,,,,,,,*79
$IIHDM,,M*0C
$IIHDT,,T*0C
$IIMWD,,,,,08.18,N,04.21,M*5B
$IIVDR,,,,,,N*0E
$IIVHW,,T,,M,06.07,N,11.24,K*52
$IIVPW,5.16,N,,*03
$IIVTG,222.89,T,222.89,M,5.90,N,,,D*68
$IIMWV,342,R,13.80,N,A*2C
$IIVWT,032,L,08.18,N,04.21,M,,*2D
$IIHDT,,T*0C
$GPWCV,,N,,D*5F
$GPXTE,A,A,,R,N,D*06
$GPZDA,095623,,,,00,*43
$IIDBT,034.87,f,010.63,M,005.74,F*2B
$GPGLL,6005.044,N,02332.289,E,095623,A,D*49
$GPGSV,,,,,,,,,,,,,,,,,,,*79
$IIHDM,,M*0C
$IIHDT,,T*0C
$IIMWD,,,,,07.85,N,04.04,M*57
$IIVDR,,,,,,N*0E
$IIVHW,,T,,M,06.11,N,11.31,K*51
$IIVPW,5.14,N,,*01
$IIVTG,221.80,T,221.80,M,5.90,N,,,D*68
$IIMWV,329,T,08.18,N,A*2C
$IIVWT,031,L,08.18,N,04.21,M,,*2E
$IIHDT,,T*0C
$GPWCV,,N,,D*5F
$GPXTE,A,A,,R,N,D*06
$GPZDA,095625,,,,00,*45
$IIDBT,034.94,f,010.65,M,005.75,F*2E
$GPGLL,6005.040,N,02332.283,E,095625,A,D*41
$GPGSV,,,,,,,,,,,,,,,,,,,*79
$IIHDM,,M*0C
$IIHDT,,T*0C
$IIMWD,,,,,08.24,N,04.24,M*51
$IIVDR,,,,,,N*0E
$IIVHW,,T,,M,06.12,N,11.33,K*50
$IIVPW,5.17,N,,*02
$IIVTG,220.77,T,220.77,M,5.90,N,,,D*68
$IIMWV,343,R,13.80,N,A*2D
$IIVWT,030,L,08.16,N,04.20,M,,*20
$IIHDT,,T*0C
$GPWCV,,N,,D*5F
$GPXTE,A,A,,R,N,D*06
$GPZDA,095627,,,,00,*47
$IIDBT,035.10,f,010.70,M,005.78,F*2A
$GPGLL,6005.038,N,02332.279,E,095628,A,D*46
$GPGSV,,,,,,,,,,,,,,,,,,,*79
$IIHDM,,M*0C
$IIHDT,,T*0C
$IIMWD,,,,,08.10,N,04.17,M*56
$IIVDR,,,,,,N*0E
$IIVHW,,T,,M,06.11,N,11.31,K*51
$IIVPW,5.33,N,,*04
$IIVTG,219.23,T,219.23,M,5.91,N,,,D*69
$IIMWV,332,T,08.06,N,A*29
$IIVWT,029,L,08.06,N,04.15,M,,*2F
$IIHDT,,T*0C
$GPWCV,,N,,D*5F
$GPXTE,A,A,,R,N,D*06
$GPZDA,095629,,,,00,*49
$IIDBT,035.20,f,010.73,M,005.79,F*2B
$GPGLL,6005.035,N,02332.275,E,095630,A,D*4E
$GPGSV,,,,,,,,,,,,,,,,,,,*79
$IIHDM,,M*0C
$IIHDT,,T*0C
$IIMWD,,,,,08.08,N,04.16,M*5E
$IIVDR,,,,,,N*0E
$IIVHW,,T,,M,06.11,N,11.31,K*51
$IIVPW,5.43,N,,*03
$IIVTG,218.76,T,218.76,M,5.90,N,,,D*68
$IIMWV,345,R,13.80,N,A*2B
$IIVWT,027,L,08.10,N,04.17,M,,*24
$IIHDT,,T*0C
$GPWCV,,N,,D*5F
$GPXTE,A,A,,R,N,D*06
$GPZDA,095631,,,,00,*40
$IIDBT,035.30,f,010.76,M,005.81,F*28
$GPGLL,6005.032,N,02332.271,E,095632,A,D*4F
$GPGSV,,,,,,,,,,,,,,,,,,,*79
$IIHDM,,M*0C
$IIHDT,,T*0C
$IIMWD,,,,,08.08,N,04.16,M*5E
$IIVDR,,,,,,N*0E
$IIVHW,,T,,M,06.11,N,11.31,K*51
$IIVPW,5.25,N,,*03
$IIVTG,218.61,T,218.61,M,5.90,N,,,D*68
$IIMWV,330,T,08.20,N,A*2F
$IIVWT,030,L,08.20,N,04.22,M,,*27
$IIHDT,,T*0C
$GPWCV,,N,,D*5F
$GPXTE,A,A,,R,N,D*06
$GPZDA,095633,,,,00,*42
$IIDBT,035.39,f,010.79,M,005.83,F*2C
$GPGLL,6005.030,N,02332.267,E,095634,A,D*4C
$GPGSV,,,,,,,,,,,,,,,,,,,*79
$IIHDM,,M*0C
$IIHDT,,T*0C
$IIMWD,,,,,08.49,N,04.37,M*58
$IIVDR,,,,,,N*0E
$IIVHW,,T,,M,06.11,N,11.31,K*51
$IIVPW,5.42,N,,*02
$IIVTG,217.40,T,217.40,M,5.83,N,,,D*6A
$IIMWV,344,R,14.19,N,A*2D
$IIVWT,027,L,08.49,N,04.37,M,,*2A
$IIHDT,,T*0C
$GPWCV,,N,,D*5F
$GPXTE,A,A,,R,N,D*06
$GPZDA,095635,,,,00,*44
$IIDBT,035.53,f,010.83,M,005.85,F*23
$GPGLL,6005.027,N,02332.263,E,095636,A,D*4C
$GPGSV,,,,,,,,,,,,,,,,,,,*79
$IIHDM,,M*0C
$IIHDT,,T*0C
$IIMWD,,,,,08.47,N,04.36,M*57
$IIVDR,,,,,,N*0E
$IIVHW,,T,,M,06.10,N,11.29,K*59
$IIVPW,5.37,N,,*00
$IIVTG,217.65,T,217.65,M,5.86,N,,,D*6F
$IIMWV,332,T,08.53,N,A*29
$IIVWT,028,L,08.53,N,04.39,M,,*20
$IIHDT,,T*0C
$GPWCV,,N,,D*5F
$GPXTE,A,A,,R,N,D*06
$GPZDA,095638,,,,00,*49
$IIDBT,035.69,f,010.88,M,005.88,F*2C
$GPGLL,6005.025,N,02332.259,E,095638,A,D*49
$GPGSV,,,,,,,,,,,,,,,,,,,*79
$IIHDM,,M*0C
$IIHDT,,T*0C
$IIMWD,,,,,08.45,N,04.35,M*56
$IIVDR,,,,,,N*0E
$IIVHW,,T,,M,06.09,N,11.27,K*5F
$IIVPW,5.30,N,,*07
$IIVTG,217.34,T,217.34,M,5.89,N,,,D*60
$IIMWV,343,R,13.80,N,A*2D
$IIVWT,030,L,08.04,N,04.14,M,,*24
$IIHDT,,T*0C
$GPWCV,,N,,D*5F
$GPXTE,A,A,,R,N,D*06
$GPZDA,095640,,,,00,*46
$IIDBT,035.82,f,010.92,M,005.90,F*2B
$GPGLL,6005.022,N,02332.255,E,095640,A,D*4D
$GPGSV,,,,,,,,,,,,,,,,,,,*79
$IIHDM,,M*0C
$IIHDT,,T*0C
$IIMWD,,,,,08.20,N,04.22,M*53
$IIVDR,,,,,,N*0E
$IIVHW,,T,,M,06.11,N,11.31,K*51
$IIVPW,5.17,N,,*02
$IIVTG,216.61,T,216.61,M,5.90,N,,,D*68
$IIMWV,328,T,08.16,N,A*23
$IIVWT,032,L,08.16,N,04.20,M,,*22
$IIHDT,,T*0C
$GPWCV,,N,,D*5F
$GPXTE,A,A,,R,N,D*06
$GPZDA,095642,,,,00,*44
$IIDBT,036.02,f,010.98,M,005.93,F*29
$GPGLL,6005.019,N,02332.251,E,095642,A,D*43
$GPGSV,,,,,,,,,,,,,,,,,,,*79
$IIHDM,,M*0C
$IIHDT,,T*0C
$IIMWD,,,,,07.69,N,03.96,M*59
$IIVDR,,,,,,N*0E
$IIVHW,,T,,M,06.11,N,11.31,K*51
$IIVPW,5.41,N,,*01
$IIVTG,216.28,T,216.28,M,5.90,N,,,D*68
$IIMWV,345,R,13.80,N,A*2B
$IIVWT,027,L,08.10,N,04.17,M,,*24
$IIHDT,,T*0C
$GPWCV,,N,,D*5F
$GPXTE,A,A,,R,N,D*06
$GPZDA,095644,,,,00,*42
$IIDBT,036.18,f,011.03,M,005.96,F*24
$GPGLL,6005.017,N,02332.247,E,095644,A,D*4C
$GPGSV,,,,,,,,,,,,,,,,,,,*79
$IIHDM,,M*0C
$IIHDT,,T*0C
$IIMWD,,,,,08.02,N,04.13,M*51
$IIVDR,,,,,,N*0E
$IIVHW,,T,,M,06.11,N,11.31,K*51
$IIVPW,5.33,N,,*04
$IIVTG,216.87,T,216.87,M,5.90,N,,,D*68
$IIMWV,330,T,08.26,N,A*29
$IIVWT,030,L,08.26,N,04.25,M,,*26
$IIHDT,,T*0C
$GPWCV,,N,,D*5F
$GPXTE,A,A,,R,N,D*06
$GPZDA,095646,,,,00,*40
$IIDBT,036.41,f,011.10,M,005.99,F*25
$GPGLL,6005.014,N,02332.244,E,095646,A,D*4E
$GPGSV,,,,,,,,,,,,,,,,,,,*79
$IIHDM,,M*0C
$IIHDT,,T*0C
$IIMWD,,,,,08.12,N,04.18,M*5B
$IIVDR,,,,,,N*0E
$IIVHW,,T,,M,06.10,N,11.29,K*59
$IIVPW,5.27,N,,*01
$IIVTG,215.62,T,215.62,M,5.85,N,,,D*6C
$IIMWV,343,R,13.80,N,A*2D
$IIVWT,029,L,08.22,N,04.23,M,,*2C
$IIHDT,,T*0C
$GPWCV,,N,,D*5F
$GPXTE,A,A,,R,N,D*06
$GPZDA,095648,,,,00,*4E
$IIDBT,036.64,f,011.17,M,006.03,F*25
$GPGLL,6005.011,N,02332.240,E,095648,A,D*41
$GPGSV,,,,,,,,,,,,,,,,,,,*79
$IIHDM,,M*0C
$IIHDT,,T*0C
$IIMWD,,,,,08.59,N,04.42,M*5B
$IIVDR,,,,,,N*0E
$IIVHW,,T,,M,06.08,N,11.26,K*5F
$IIVPW,5.24,N,,*02
$IIVTG,214.76,T,214.76,M,5.81,N,,,D*68
$IIMWV,330,T,08.61,N,A*2A
$IIVWT,030,L,08.61,N,04.43,M,,*25
$IIHDT,,T*0C
$GPWCV,,N,,D*5F
$GPXTE,A,A,,R,N,D*06
$GPZDA,095650,,,,00,*47
$IIDBT,036.87,f,011.24,M,006.07,F*2C
$GPGLL,6005.009,N,02332.236,E,095650,A,D*40
$GPGSV,,,,,,,,,,,,,,,,,,,*79
$IIHDM,,M*0C
$IIHDT,,T*0C
$IIMWD,,,,,08.26,N,04.25,M*52
$IIVDR,,,,,,N*0E
$IIVHW,,T,,M,06.06,N,11.22,K*55
$IIVPW,5.22,N,,*04
$IIVTG,215.13,T,215.13,M,5.85,N,,,D*6C
$IIMWV,342,R,13.80,N,A*2C
$IIVWT,031,L,08.24,N,04.24,M,,*24
$IIHDT,,T*0C
$GPWCV,,N,,D*5F
$GPXTE,A,A,,R,N,D*06
$GPZDA,095652,,,,00,*45
$IIDBT,037.13,f,011.32,M,006.11,F*20
$GPGLL,6005.006,N,02332.232,E,095652,A,D*49
$GPGSV,,,,,,,,,,,,,,,,,,,*79
$IIHDM,,M*0C
$IIHDT,,T*0C
$IIMWD,,,,,08.20,N,04.22,M*53
$IIVDR,,,,,,N*0E
$IIVHW,,T,,M,06.06,N,11.22,K*55
$IIVPW,5.18,N,,*0D
$IIVTG,215.61,T,215.61,M,5.89,N,,,D*60
$IIMWV,330,T,08.18,N,A*24
$IIVWT,030,L,08.18,N,04.21,M,,*2F
$IIHDT,,T*0C
$GPWCV,,N,,D*5F
$GPXTE,A,A,,R,N,D*06
$GPZDA,095654,,,,00,*43
$IIDBT,037.40,f,011.40,M,006.16,F*24
$GPGLL,6005.003,N,02332.229,E,095654,A,D*40
$GPGSV,,,,,,,,,,,,,,,,,,,*79
$IIHDM,,M*0C
$IIHDT,,T*0C
$IIMWD,,,,,08.49,N,04.37,M*58
$IIVDR,,,,,,N*0E
$IIVHW,,T,,M,06.07,N,11.24,K*52
$IIVPW,5.28,N,,*0E
$IIVTG,215.95,T,215.95,M,5.90,N,,,D*68
$IIMWV,341,R,13.80,N,A*2F
$IIVWT,032,L,08.22,N,04.23,M,,*26
$IIHDT,,T*0C
$GPWCV,,N,,D*5F
$GPXTE,A,A,,R,N,D*06
$GPZDA,095656,,,,00,*41
$IIDBT,037.76,f,011.51,M,006.22,F*26
$GPGLL,6005.001,N,02332.225,E,095656,A,D*4C
$GPGSV,,,,,,,,,,,,,,,,,,,*79
$IIHDM,,M*0C
$IIHDT,,T*0C
$IIMWD,,,,,08.18,N,04.21,M*5B
$IIVDR,,,,,,N*0E
$IIVHW,,T,,M,06.09,N,11.27,K*5F
$IIVPW,5.23,N,,*05
$IIVTG,216.26,T,216.26,M,5.90,N,,,D*68
$IIMWV,330,T,07.81,N,A*2B
$IIVWT,030,L,07.81,N,04.02,M,,*21
$IIHDT,,T*0C
$GPWCV,,N,,D*5F
$GPXTE,A,A,,R,N,D*06
$GPZDA,095658,,,,00,*4F
$IIDBT,038.15,f,011.63,M,006.28,F*27
$GPGLL,6004.998,N,02332.221,E,095658,A,D*4E
$GPGSV,,,,,,,,,,,,,,,,,,,*79
$IIHDM,,M*0C
$IIHDT,,T*0C
$IIMWD,,,,,08.08,N,04.16,M*5E
$IIVDR,,,,,,N*0E
$IIVHW,,T,,M,06.07,N,11.24,K*52
$IIVPW,5.27,N,,*01
$IIVTG,216.29,T,216.29,M,5.87,N,,,D*6E
$IIMWV,344,R,13.80,N,A*2A
$IIVWT,028,L,08.14,N,04.19,M,,*21
$IIHDT,,T*0C
$GPWCV,,N,,D*5F
$GPXTE,A,A,,R,N,D*06
$GPZDA,095700,,,,00,*43
$IIDBT,038.58,f,011.76,M,006.35,F*26
$GPGLL,6004.996,N,02332.217,E,095700,A,D*49
$GPGSV,,,,,,,,,,,,,,,,,,,*79
$IIHDM,,M*0C
$IIHDT,,T*0C
$IIMWD,,,,,07.79,N,04.01,M*51
$IIVDR,,,,,,N*0E
$IIVHW,,T,,M,06.05,N,11.20,K*54
$IIVPW,5.36,N,,*01
$IIVTG,215.30,T,215.30,M,5.89,N,,,D*60
$IIMWV,331,T,07.79,N,A*2D
$IIVWT,029,L,07.79,N,04.01,M,,*2D
$IIHDT,,T*0C
$GPWCV,,N,,D*5F
$GPXTE,A,A,,R,N,D*06
$GPZDA,095702,,,,00,*41
$IIDBT,038.90,f,011.86,M,006.41,F*2E
$GPGLL,6004.993,N,02332.214,E,095702,A,D*4D
$GPGSV,,,,,,,,,,,,,,,,,,,*79
$IIHDM,,M*0C
$IIHDT,,T*0C
$IIMWD,,,,,07.77,N,04.00,M*5E
$IIVDR,,,,,,N*0E
$IIVHW,,T,,M,06.06,N,11.22,K*55
$IIVPW,5.31,N,,*06
$IIVTG,213.90,T,213.90,M,5.90,N,,,D*68
$IIMWV,344,R,13.80,N,A*2A
$IIVWT,028,L,08.10,N,04.17,M,,*2B
$IIHDT,,T*0C
$GPWCV,,N,,D*5F
$GPXTE,A,A,,R,N,D*06
$GPZDA,095704,,,,00,*47
$IIDBT,039.00,f,011.89,M,006.42,F*2A
$GPGLL,6004.990,N,02332.210,E,095704,A,D*4C
$GPGSV,,,,,,,,,,,,,,,,,,,*79
$IIHDM,,M*0C
$IIHDT,,T*0C
$IIMWD,,,,,08.53,N,04.39,M*5D
$IIVDR,,,,,,N*0E
$IIVHW,,T,,M,06.08,N,11.26,K*5F
$IIVPW,5.37,N,,*00
$IIVTG,214.12,T,214.12,M,5.90,N,,,D*68
$IIMWV,332,T,08.55,N,A*2F
$IIVWT,028,L,08.55,N,04.40,M,,*28
$IIHDT,,T*0C
$GPWCV,,N,,D*5F
$GPXTE,A,A,,R,N,D*06
$GPZDA,095706,,,,00,*45
$IIDBT,039.13,f,011.93,M,006.44,F*25
$GPGLL,6004.987,N,02332.206,E,095706,A,D*4F
$GPGSV,,,,,,,,,,,,,,,,,,,*79
$IIHDM,,M*0C
$IIHDT,,T*0C
$IIMWD,,,,,08.00,N,04.12,M*52
$IIVDR,,,,,,N*0E
$IIVHW,,T,,M,06.10,N,11.29,K*59
$IIVPW,5.50,N,,*01
$IIVTG,214.26,T,214.26,M,5.90,N,,,D*68
$IIMWV,346,R,13.80,N,A*28
$IIVWT,025,L,08.02,N,04.13,M,,*21
$IIHDT,,T*0C
$GPWCV,,N,,D*5F
$GPXTE,A,A,,R,N,D*06
$GPZDA,095708,,,,00,*4B
$IIDBT,039.17,f,011.94,M,006.45,F*27
$GPGLL,6004.983,N,02332.201,E,095708,A,D*42
$GPGSV,,,,,,,,,,,,,,,,,,,*79
$IIHDM,,M*0C
$IIHDT,,T*0C
$IIMWD,,,,,08.04,N,04.14,M*50
$IIVDR,,,,,,N*0E
$IIVHW,,T,,M,06.10,N,11.29,K*59
$IIVPW,5.33,N,,*04
$IIVTG,214.37,T,214.37,M,5.90,N,,,D*68
$IIMWV,332,T,08.08,N,A*27
$IIVWT,029,L,08.08,N,04.16,M,,*22
$IIHDT,,T*0C
$GPWCV,,N,,D*5F
$GPXTE,A,A,,R,N,D*06
$GPZDA,095710,,,,00,*42
$IIDBT,039.17,f,011.94,M,006.45,F*27
$GPGLL,6004.981,N,02332.197,E,095711,A,D*44
$GPGSV,,,,,,,,,,,,,,,,,,,*79
$IIHDM,,M*0C
$IIHDT,,T*0C
$IIMWD,,,,,08.04,N,04.14,M*50
$IIVDR,,,,,,N*0E
$IIVHW,,T,,M,06.12,N,11.33,K*50
$IIVPW,5.43,N,,*03
$IIVTG,213.57,T,213.57,M,5.81,N,,,D*68
$IIMWV,344,R,14.19,N,A*2D
$IIVWT,028,L,08.41,N,04.33,M,,*29
$IIHDT,,T*0C
$GPWCV,,N,,D*5F
$GPXTE,A,A,,R,N,D*06
$GPZDA,095712,,,,00,*40
$IIDBT,039.04,f,011.90,M,006.43,F*27
$GPGLL,6004.978,N,02332.194,E,095713,A,D*43
$GPGSV,,,,,,,,,,,,,,,,,,,*79
$IIHDM,,M*0C
$IIHDT,,T*0C
$IIMWD,,,,,08.55,N,04.40,M*55
$IIVDR,,,,,,N*0E
$IIVHW,,T,,M,06.10,N,11.29,K*59
$IIVPW,5.32,N,,*05
$IIVTG,211.77,T,211.77,M,5.80,N,,,D*69
$IIMWV,333,T,08.53,N,A*28
$IIVWT,027,L,08.53,N,04.39,M,,*2F
$IIHDT,,T*0C
$GPWCV,,N,,D*5F
$GPXTE,A,A,,R,N,D*06
$GPZDA,095714,,,,00,*46
$IIDBT,038.84,f,011.84,M,006.39,F*26
$GPGLL,6004.975,N,02332.191,E,095715,A,D*4D
$GPGSV,,,,,,,,,,,,,,,,,,,*79
$IIHDM,,M*0C
$IIHDT,,T*0C
$IIMWD,,,,,08.20,N,04.22,M*53
$IIVDR,,,,,,N*0E
$IIVHW,,T,,M,06.09,N,11.27,K*5F
$IIVPW,5.28,N,,*0E
$IIVTG,210.52,T,210.52,M,5.80,N,,,D*69
$IIMWV,344,R,13.80,N,A*2A
$IIVWT,028,L,08.12,N,04.18,M,,*26
$IIHDT,,T*0C
$GPWCV,,N,,D*5F
$GPXTE,A,A,,R,N,D*06
$GPZDA,095716,,,,00,*44
$IIDBT,038.54,f,011.75,M,006.35,F*29
$GPGLL,6004.972,N,02332.187,E,095717,A,D*4F
$GPGSV,,,,,,,,,,,,,,,,,,,*79
$IIHDM,,M*0C
$IIHDT,,T*0C
$IIMWD,,,,,08.08,N,04.16,M*5E
$IIVDR,,,,,,N*0E
$IIVHW,,T,,M,06.08,N,11.26,K*5F
$IIVPW,5.39,N,,*0E
$IIVTG,211.00,T,211.00,M,5.80,N,,,D*69
$IIMWV,331,T,08.04,N,A*28
$IIVWT,029,L,08.04,N,04.14,M,,*2C
$IIHDT,,T*0C
$GPWCV,,N,,D*5F
$GPXTE,A,A,,R,N,D*06
$GPZDA,095718,,,,00,*4A
$IIDBT,037.66,f,011.48,M,006.20,F*2D
$GPGLL,6004.970,N,02332.184,E,095719,A,D*40
$GPGSV,,,,,,,,,,,,,,,,,,,*79
$IIHDM,,M*0C
$IIHDT,,T*0C
$IIMWD,,,,,07.93,N,04.08,M*5C
$IIVDR,,,,,,N*0E
$IIVHW,,T,,M,06.09,N,11.27,K*5F
$IIVPW,5.53,N,,*02
$IIVTG,210.90,T,210.90,M,5.80,N,,,D*69
$IIMWV,345,R,13.80,N,A*2B
$IIVWT,027,L,07.91,N,04.07,M,,*23
$IIHDT,,T*0C
$GPWCV,,N,,D*5F
$GPXTE,A,A,,R,N,D*06
$GPZDA,095720,,,,00,*41
$IIDBT,036.58,f,011.15,M,006.02,F*29
$GPGLL,6004.967,N,02332.181,E,095721,A,D*48
$GPGSV,,,,,,,,,,,,,,,,,,,*79
$IIHDM,,M*0C
$IIHDT,,T*0C
$IIMWD,,,,,08.02,N,04.13,M*51
$IIVDR,,,,,,N*0E
$IIVHW,,T,,M,06.11,N,11.31,K*51
$IIVPW,5.50,N,,*01
$IIVTG,211.62,T,211.62,M,5.80,N,,,D*69
$IIMWV,335,T,07.98,N,A*26
$IIVWT,025,L,07.98,N,04.11,M,,*2F
$IIHDT,,T*0C
$GPWCV,,N,,D*5F
$GPXTE,A,A,,R,N,D*06
$GPZDA,095723,,,,00,*42
$IIDBT,034.94,f,010.65,M,005.75,F*2E
$GPGLL,6004.964,N,02332.177,E,095723,A,D*40
$GPGSV,,,,,,,,,,,,,,,,,,,*79
$IIHDM,,M*0C
$IIHDT,,T*0C
$IIMWD,,,,,08.49,N,04.37,M*58
$IIVDR,,,,,,N*0E
$IIVHW,,T,,M,06.11,N,11.31,K*51
$IIVPW,5.49,N,,*09
$IIVTG,211.21,T,211.21,M,5.80,N,,,D*69
$IIMWV,345,R,14.19,N,A*2C
$IIVWT,027,L,08.43,N,04.34,M,,*23
$IIHDT,,T*0C
$GPWCV,,N,,D*5F
$GPXTE,A,A,,R,N,D*06
$GPZDA,095725,,,,00,*44
$IIDBT,033.13,f,010.10,M,005.45,F*27
$GPGLL,6004.961,N,02332.174,E,095725,A,D*40
$GPGSV,,,,,,,,,,,,,,,,,,,*79
$IIHDM,,M*0C
$IIHDT,,T*0C
$IIMWD,,,,,08.43,N,04.34,M*51
$IIVDR,,,,,,N*0E
$IIVHW,,T,,M,06.10,N,11.29,K*59
$IIVPW,5.51,N,,*00
$IIVTG,209.77,T,209.77,M,5.80,N,,,D*69
$IIMWV,335,T,08.39,N,A*22
$IIVWT,025,L,08.39,N,04.32,M,,*2A
$IIHDT,,T*0C
$GPWCV,,N,,D*5F
$GPXTE,A,A,,R,N,D*06
$GPZDA,095727,,,,00,*46
$IIDBT,031.36,f,009.56,M,005.16,F*2E
$GPGLL,6004.959,N,02332.171,E,095727,A,D*4C
$GPGSV,,,,,,,,,,,,,,,,,,,*79
$IIHDM,,M*0C
$IIHDT,,T*0C
$IIMWD,,,,,08.53,N,04.39,M*5D
$IIVDR,,,,,,N*0E
$IIVHW,,T,,M,06.09,N,11.27,K*5F
$IIVPW,5.42,N,,*02
$IIVTG,209.07,T,209.07,M,5.80,N,,,D*69
$IIMWV,345,R,14.19,N,A*2C
$IIVWT,026,L,08.45,N,04.35,M,,*25
$IIHDT,,T*0C
$GPWCV,,N,,D*5F
$GPXTE,A,A,,R,N,D*06
$GPZDA,095729,,,,00,*48
$IIDBT,028.73,f,008.76,M,004.73,F*26
$GPGLL,6004.956,N,02332.168,E,095729,A,D*45
$GPGSV,,,,,,,,,,,,,,,,,,,*79
$IIHDM,,M*0C
$IIHDT,,T*0C
$IIMWD,,,,,08.39,N,04.32,M*5A
$IIVDR,,,,,,N*0E
$IIVHW,,T,,M,06.08,N,11.26,K*5F
$IIVPW,5.47,N,,*07
$IIVTG,210.09,T,210.09,M,5.80,N,,,D*69
$IIMWV,333,T,08.43,N,A*29
$IIVWT,027,L,08.43,N,04.34,M,,*23
$IIHDT,,T*0C
$GPWCV,,N,,D*5F
$GPXTE,A,A,,R,N,D*06
$GPZDA,095731,,,,00,*41
$IIDBT,027.16,f,008.28,M,004.47,F*26
$GPGLL,6004.953,N,02332.165,E,095731,A,D*44
$GPGSV,,,,,,,,,,,,,,,,,,,*79
$IIHDM,,M*0C
$IIHDT,,T*0C
$IIMWD,,,,,08.45,N,04.35,M*56
$IIVDR,,,,,,N*0E
$IIVHW,,T,,M,06.09,N,11.27,K*5F
$IIVPW,5.43,N,,*03
$IIVTG,210.60,T,210.60,M,5.80,N,,,D*69
$IIMWV,345,R,14.38,N,A*2F
$IIVWT,026,L,08.63,N,04.44,M,,*27
$IIHDT,,T*0C
$GPWCV,,N,,D*5F
$GPXTE,A,A,,R,N,D*06
$GPZDA,095733,,,,00,*43
$IIDBT,025.65,f,007.82,M,004.22,F*2C
$GPGLL,6004.951,N,02332.161,E,095733,A,D*40
$GPGSV,,,,,,,,,,,,,,,,,,,*79
$IIHDM,,M*0C
$IIHDT,,T*0C
$IIMWD,,,,,08.66,N,04.46,M*53
$IIVDR,,,,,,N*0E
$IIVHW,,T,,M,06.10,N,11.29,K*59
$IIVPW,5.37,N,,*00
$IIVTG,210.90,T,210.90,M,5.75,N,,,D*63
$IIMWV,331,T,08.78,N,A*23
$IIVWT,029,L,08.78,N,04.52,M,,*25
$IIHDT,,T*0C
$GPWCV,,N,,D*5F
$GPXTE,A,A,,R,N,D*06
$GPZDA,095735,,,,00,*45
$IIDBT,024.73,f,007.54,M,004.07,F*26
$GPGLL,6004.948,N,02332.158,E,095735,A,D*44
$GPGSV,,,,,,,,,,,,,,,,,,,*79
$IIHDM,,M*0C
$IIHDT,,T*0C
$IIMWD,,,,,08.74,N,04.50,M*57
$IIVDR,,,,,,N*0E
$IIVHW,,T,,M,06.09,N,11.27,K*5F
$IIVPW,5.38,N,,*0F
$IIVTG,210.62,T,210.62,M,5.74,N,,,D*62
$IIMWV,345,R,14.38,N,A*2F
$IIVWT,026,L,08.65,N,04.45,M,,*20
$IIHDT,,T*0C
$GPWCV,,N,,D*5F
$GPXTE,A,A,,R,N,D*06
$GPZDA,095737,,,,00,*47
$IIDBT,023.81,f,007.26,M,003.92,F*22
$GPGLL,6004.945,N,02332.155,E,095737,A,D*46
$GPGSV,,,,,,,,,,,,,,,,,,,*79
$IIHDM,,M*0C
$IIHDT,,T*0C
$IIMWD,,,,,08.47,N,04.36,M*57
$IIVDR,,,,,,N*0E
$IIVHW,,T,,M,06.09,N,11.27,K*5F
$IIVPW,5.35,N,,*02
$IIVTG,210.23,T,210.23,M,5.78,N,,,D*6E
$IIMWV,332,T,08.57,N,A*2D
$IIVWT,028,L,08.57,N,04.41,M,,*2B
$IIHDT,,T*0C
$GPWCV,,N,,D*5F
$GPXTE,A,A,,R,N,D*06
$GPZDA,095739,,,,00,*49
$IIDBT,023.26,f,007.09,M,003.83,F*22
$GPGLL,6004.942,N,02332.152,E,095739,A,D*48
$GPGSV,,,,,,,,,,,,,,,,,,,*79
$IIHDM,,M*0C
$IIHDT,,T*0C
$IIMWD,,,,,08.45,N,04.35,M*56
$IIVDR,,,,,,N*0E
$IIVHW,,T,,M,06.09,N,11.27,K*5F
$IIVPW,5.36,N,,*01
$IIVTG,209.51,T,209.51,M,5.80,N,,,D*69
$IIMWV,343,R,14.19,N,A*2A
$IIVWT,029,L,08.61,N,04.43,M,,*2D
$IIHDT,,T*0C
$GPWCV,,N,,D*5F
$GPXTE,A,A,,R,N,D*06
$GPZDA,095741,,,,00,*46
$IIDBT,022.93,f,006.99,M,003.77,F*2E
$GPGLL,6004.939,N,02332.149,E,095741,A,D*41
$GPGSV,,,,,,,,,,,,,,,,,,,*79
$IIHDM,,M*0C
$IIHDT,,T*0C
$IIMWD,,,,,08.51,N,04.38,M*5E
$IIVDR,,,,,,N*0E
$IIVHW,,T,,M,06.08,N,11.26,K*5F
$IIVPW,5.34,N,,*03
$IIVTG,209.48,T,209.48,M,5.80,N,,,D*69
$IIMWV,333,T,08.04,N,A*2A
$IIVWT,027,L,08.04,N,04.14,M,,*22
$IIHDT,,T*0C
$GPWCV,,N,,D*5F
$GPXTE,A,A,,R,N,D*06
$GPZDA,095743,,,,00,*44
$IIDBT,022.93,f,006.99,M,003.77,F*2E
$GPGLL,6004.937,N,02332.146,E,095743,A,D*42
$GPGSV,,,,,,,,,,,,,,,,,,,*79
$IIHDM,,M*0C
$IIHDT,,T*0C
$IIMWD,,,,,08.14,N,04.19,M*5C
$IIVDR,,,,,,N*0E
$IIVHW,,T,,M,06.08,N,11.26,K*5F
$IIVPW,5.31,N,,*06
$IIVTG,209.47,T,209.47,M,5.80,N,,,D*69
$IIMWV,343,R,13.80,N,A*2D
$IIVWT,029,L,08.22,N,04.23,M,,*2C
$IIHDT,,T*0C
$GPWCV,,N,,D*5F
$GPXTE,A,A,,R,N,D*06
$GPZDA,095745,,,,00,*42
$IIDBT,022.83,f,006.96,M,003.76,F*21
$GPGLL,6004.934,N,02332.142,E,095745,A,D*43
$GPGSV,,,,,,,,,,,,,,,,,,,*79
$IIHDM,,M*0C
$IIHDT,,T*0C
$IIMWD,,,,,08.04,N,04.14,M*50
$IIVDR,,,,,,N*0E
$IIVHW,,T,,M,06.07,N,11.24,K*52
$IIVPW,5.42,N,,*02
$IIVTG,209.22,T,209.22,M,5.72,N,,,D*64
$IIMWV,332,T,08.10,N,A*2E
$IIVWT,028,L,08.10,N,04.17,M,,*2B
$IIHDT,,T*0C
$GPWCV,,N,,D*5F
$GPXTE,A,A,,R,N,D*06
$GPZDA,095747,,,,00,*40
$IIDBT,022.93,f,006.99,M,003.77,F*2E
$GPGLL,6004.931,N,02332.139,E,095747,A,D*48
$GPGSV,,,,,,,,,,,,,,,,,,,*79
$IIHDM,,M*0C
$IIHDT,,T*0C
$IIMWD,,,,,08.10,N,04.17,M*56
$IIVDR,,,,,,N*0E
$IIVHW,,T,,M,06.08,N,11.26,K*5F
$IIVPW,5.32,N,,*05
$IIVTG,209.30,T,209.30,M,5.71,N,,,D*67
$IIMWV,343,R,13.80,N,A*2D
$IIVWT,030,L,08.22,N,04.23,M,,*24
$IIHDT,,T*0C
$GPWCV,,N,,D*5F
$GPXTE,A,A,,R,N,D*06
$GPZDA,095749,,,,00,*4E
$IIDBT,023.06,f,007.03,M,003.79,F*2F
$GPGLL,6004.928,N,02332.136,E,095749,A,D*41
$GPGSV,,,,,,,,,,,,,,,,,,,*79
$IIHDM,,M*0C
$IIHDT,,T*0C
$IIMWD,,,,,08.55,N,04.40,M*55
$IIVDR,,,,,,N*0E
$IIVHW,,T,,M,06.08,N,11.26,K*5F
$IIVPW,5.37,N,,*00
$IIVTG,210.48,T,210.48,M,5.70,N,,,D*66
$IIMWV,331,T,08.47,N,A*2F
$IIVWT,029,L,08.47,N,04.36,M,,*2B
$IIHDT,,T*0C
$GPWCV,,N,,D*5F
$GPXTE,A,A,,R,N,D*06
$GPZDA,095751,,,,00,*47
$IIDBT,023.29,f,007.10,M,003.83,F*25
$GPGLL,6004.924,N,02332.131,E,095752,A,D*40
$GPGSV,,,,,,,,,,,,,,,,,,,*79
$IIHDM,,M*0C
$IIHDT,,T*0C
$IIMWD,,,,,08.51,N,04.38,M*5E
$IIVDR,,,,,,N*0E
$IIVHW,,T,,M,06.07,N,11.24,K*52
$IIVPW,5.43,N,,*03
$IIVTG,210.43,T,210.43,M,5.79,N,,,D*6F
$IIMWV,344,R,14.19,N,A*2D
$IIVWT,028,L,08.41,N,04.33,M,,*29
$IIHDT,,T*0C
$GPWCV,,N,,D*5F
$GPXTE,A,A,,R,N,D*06
$GPZDA,095753,,,,00,*45
$IIDBT,023.81,f,007.26,M,003.92,F*22
$GPGLL,6004.921,N,02332.128,E,095754,A,D*4B
$GPGSV,,,,,,,,,,,,,,,,,,,*79
$IIHDM,,M*0C
$IIHDT,,T*0C
$IIMWD,,,,,08.49,N,04.37,M*58
$IIVDR,,,,,,N*0E
$IIVHW,,T,,M,06.10,N,11.29,K*59
$IIVPW,5.37,N,,*00
$IIVTG,210.38,T,210.38,M,5.80,N,,,D*69
$IIMWV,333,T,08.41,N,A*2B
$IIVWT,027,L,08.41,N,04.33,M,,*26
$IIHDT,,T*0C
$GPWCV,,N,,D*5F
$GPXTE,A,A,,R,N,D*06
$GPZDA,095755,,,,00,*43
$IIDBT,024.08,f,007.34,M,003.96,F*23
$GPGLL,6004.919,N,02332.125,E,095756,A,D*4F
$GPGSV,,,,,,,,,,,,,,,,,,,*79
$IIHDM,,M*0C
$IIHDT,,T*0C
$IIMWD,,,,,08.53,N,04.39,M*5D
$IIVDR,,,,,,N*0E
$IIVHW,,T,,M,06.09,N,11.27,K*5F
$IIVPW,5.38,N,,*0F
$IIVTG,210.25,T,210.25,M,5.80,N,,,D*69
$IIMWV,343,R,14.19,N,A*2A
$IIVWT,028,L,08.51,N,04.38,M,,*23
$IIHDT,,T*0C
$GPWCV,,N,,D*5F
$GPXTE,A,A,,R,N,D*06
$GPZDA,095757,,,,00,*41
$IIDBT,024.67,f,007.52,M,004.06,F*24
$GPGLL,6004.916,N,02332.122,E,095758,A,D*49
$GPGSV,,,,,,,,,,,,,,,,,,,*79
$IIHDM,,M*0C
$IIHDT,,T*0C
$IIMWD,,,,,08.45,N,04.35,M*56
$IIVDR,,,,,,N*0E
$IIVHW,,T,,M,06.09,N,11.27,K*5F
$IIVPW,5.40,N,,*00
$IIVTG,208.71,T,208.71,M,5.72,N,,,D*64
$IIMWV,333,T,08.47,N,A*2D
$IIVWT,028,L,08.47,N,04.36,M,,*2A
$IIHDT,,T*0C
$GPWCV,,N,,D*5F
$GPXTE,A,A,,R,N,D*06
$GPZDA,095759,,,,00,*4F
$IIDBT,025.49,f,007.77,M,004.19,F*20
$GPGLL,6004.913,N,02332.118,E,095800,A,D*47
$GPGSV,,,,,,,,,,,,,,,,,,,*79
$IIHDM,,M*0C
$IIHDT,,T*0C
$IIMWD,,,,,08.66,N,04.46,M*53
$IIVDR,,,,,,N*0E
$IIVHW,,T,,M,06.09,N,11.27,K*5F
$IIVPW,5.44,N,,*04
$IIVTG,208.77,T,208.77,M,5.71,N,,,D*67
$IIMWV,344,R,14.38,N,A*2E
$IIVWT,028,L,08.82,N,04.54,M,,*27
$IIHDT,,T*0C
$GPWCV,,N,,D*5F
$GPXTE,A,A,,R,N,D*06
$GPZDA,095801,,,,00,*4D
$IIDBT,025.68,f,007.83,M,004.23,F*21
$GPGLL,6004.910,N,02332.115,E,095802,A,D*4B
$GPGSV,,,,,,,,,,,,,,,,,,,*79
$IIHDM,,M*0C
$IIHDT,,T*0C
$IIMWD,,,,,08.74,N,04.50,M*57
$IIVDR,,,,,,N*0E
$IIVHW,,T,,M,06.08,N,11.26,K*5F
$IIVPW,5.33,N,,*04
$IIVTG,209.32,T,209.32,M,5.70,N,,,D*66
$IIMWV,332,T,08.82,N,A*25
$IIVWT,028,L,08.82,N,04.54,M,,*27
$IIHDT,,T*0C
$GPWCV,,N,,D*5F
$GPXTE,A,A,,R,N,D*06
$GPZDA,095804,,,,00,*48
$IIDBT,026.50,f,008.08,M,004.36,F*21
$GPGLL,6004.907,N,02332.112,E,095804,A,D*4C
$GPGSV,,,,,,,,,,,,,,,,,,,*79
$IIHDM,,M*0C
$IIHDT,,T*0C
$IIMWD,,,,,08.68,N,04.47,M*5C
$IIVDR,,,,,,N*0E
$IIVHW,,T,,M,06.07,N,11.24,K*52
$IIVPW,5.42,N,,*02
$IIVTG,209.68,T,209.68,M,5.70,N,,,D*66
$IIMWV,345,R,14.38,N,A*2F
$IIVWT,027,L,08.59,N,04.42,M,,*29
$IIHDT,,T*0C
$GPWCV,,N,,D*5F
$GPXTE,A,A,,R,N,D*06
$GPZDA,095806,,,,00,*4A
$IIDBT,027.36,f,008.34,M,004.50,F*2F
$GPGLL,6004.905,N,02332.109,E,095806,A,D*46
$GPGSV,,,,,,,,,,,,,,,,,,,*79
$IIHDM,,M*0C
$IIHDT,,T*0C
$IIMWD,,,,,08.72,N,04.49,M*59
$IIVDR,,,,,,N*0E
$IIVHW,,T,,M,06.07,N,11.24,K*52
$IIVPW,5.33,N,,*04
$IIVTG,210.95,T,210.95,M,5.70,N,,,D*66
$IIMWV,331,T,08.72,N,A*29
$IIVWT,029,L,08.72,N,04.49,M,,*25
$IIHDT,,T*0C
$GPWCV,,N,,D*5F
$GPXTE,A,A,,R,N,D*06
$GPZDA,095808,,,,00,*44
$IIDBT,027.88,f,008.50,M,004.59,F*21
$GPGLL,6004.902,N,02332.106,E,095808,A,D*40
$GPGSV,,,,,,,,,,,,,,,,,,,*79
$IIHDM,,M*0C
$IIHDT,,T*0C
$IIMWD,,,,,08.53,N,04.39,M*5D
$IIVDR,,,,,,N*0E
$IIVHW,,T,,M,06.07,N,11.24,K*52
$IIVPW,5.25,N,,*03
$IIVTG,211.59,T,211.59,M,5.70,N,,,D*66
$IIMWV,342,R,14.19,N,A*2B
$IIVWT,031,L,08.63,N,04.44,M,,*21
$IIHDT,,T*0C
$GPWCV,,N,,D*5F
$GPXTE,A,A,,R,N,D*06
$GPZDA,095810,,,,00,*4D
$IIDBT,028.34,f,008.64,M,004.67,F*23
$GPGLL,6004.899,N,02332.102,E,095810,A,D*4E
$GPGSV,,,,,,,,,,,,,,,,,,,*79
$IIHDM,,M*0C
$IIHDT,,T*0C
$IIMWD,,,,,08.57,N,04.41,M*56
$IIVDR,,,,,,N*0E
$IIVHW,,T,,M,06.05,N,11.20,K*54
$IIVPW,5.27,N,,*01
$IIVTG,211.70,T,211.70,M,5.75,N,,,D*63
$IIMWV,330,T,08.55,N,A*2D
$IIVWT,030,L,08.55,N,04.40,M,,*21
$IIHDT,,T*0C
$GPWCV,,N,,D*5F
$GPXTE,A,A,,R,N,D*06
$GPZDA,095812,,,,00,*4F
$IIDBT,028.57,f,008.71,M,004.70,F*24
$GPGLL,6004.897,N,02332.099,E,095812,A,D*41
$GPGSV,,,,,,,,,,,,,,,,,,,*79
$IIHDM,,M*0C
$IIHDT,,T*0C
$IIMWD,,,,,08.28,N,04.26,M*5F
$IIVDR,,,,,,N*0E
$IIVHW,,T,,M,06.07,N,11.24,K*52
$IIVPW,5.08,N,,*0C
$IIVTG,211.98,T,211.98,M,5.79,N,,,D*6F
$IIMWV,342,R,14.19,N,A*2B
$IIVWT,031,L,08.63,N,04.44,M,,*21
$IIHDT,,T*0C
$GPWCV,,N,,D*5F
$GPXTE,A,A,,R,N,D*06
$GPZDA,095814,,,,00,*49
$IIDBT,029.16,f,008.89,M,004.80,F*28
$GPGLL,6004.894,N,02332.095,E,095814,A,D*48
$GPGSV,,,,,,,,,,,,,,,,,,,*79
$IIHDM,,M*0C
$IIHDT,,T*0C
$IIMWD,,,,,08.22,N,04.23,M*50
$IIVDR,,,,,,N*0E
$IIVHW,,T,,M,06.06,N,11.22,K*55
$IIVPW,5.21,N,,*07
$IIVTG,211.74,T,211.74,M,5.75,N,,,D*63
$IIMWV,330,T,08.14,N,A*28
$IIVWT,030,L,08.14,N,04.19,M,,*28
$IIHDT,,T*0C
$GPWCV,,N,,D*5F
$GPXTE,A,A,,R,N,D*06
$GPZDA,095816,,,,00,*4B
$IIDBT,029.95,f,009.13,M,004.93,F*23
$GPGLL,6004.891,N,02332.092,E,095816,A,D*48
$GPGSV,,,,,,,,,,,,,,,,,,,*79
$IIHDM,,M*0C
$IIHDT,,T*0C
$IIMWD,,,,,08.68,N,04.47,M*5C
$IIVDR,,,,,,N*0E
$IIVHW,,T,,M,06.08,N,11.26,K*5F
$IIVPW,5.13,N,,*06
$IIVTG,211.66,T,211.66,M,5.79,N,,,D*6F
$IIMWV,342,R,14.19,N,A*2B
$IIVWT,032,L,08.49,N,04.37,M,,*2E
$IIHDT,,T*0C
$GPWCV,,N,,D*5F
$GPXTE,A,A,,R,N,D*06
$GPZDA,095818,,,,00,*45
$IIDBT,030.21,f,009.21,M,004.97,F*21
$GPGLL,6004.889,N,02332.089,E,095818,A,D*45
$GPGSV,,,,,,,,,,,,,,,,,,,*79
$IIHDM,,M*0C
$IIHDT,,T*0C
$IIMWD,,,,,08.61,N,04.43,M*51
$IIVDR,,,,,,N*0E
$IIVHW,,T,,M,06.08,N,11.26,K*5F
$IIVPW,5.22,N,,*04
$IIVTG,210.81,T,210.81,M,5.75,N,,,D*63
$IIMWV,331,T,08.61,N,A*2B
$IIVWT,029,L,08.61,N,04.43,M,,*2D
$IIHDT,,T*0C
$GPWCV,,N,,D*5F
$GPXTE,A,A,,R,N,D*06
$GPZDA,095820,,,,00,*4E
$IIDBT,030.47,f,009.29,M,005.02,F*24
$GPGLL,6004.886,N,02332.086,E,095820,A,D*4E
$GPGSV,,,,,,,,,,,,,,,,,,,*79
$IIHDM,,M*0C
$IIHDT,,T*0C
$IIMWD,,,,,08.24,N,04.24,M*51
$IIVDR,,,,,,N*0E
$IIVHW,,T,,M,06.05,N,11.20,K*54
$IIVPW,5.24,N,,*02
$IIVTG,208.95,T,208.95,M,5.74,N,,,D*62
$IIMWV,341,R,14.19,N,A*28
$IIVWT,031,L,08.72,N,04.49,M,,*2C
$IIHDT,,T*0C
$GPWCV,,N,,D*5F
$GPXTE,A,A,,R,N,D*06
$GPZDA,095822,,,,00,*4C
$IIDBT,031.06,f,009.47,M,005.11,F*2A
$GPGLL,6004.883,N,02332.083,E,095822,A,D*4C
$GPGSV,,,,,,,,,,,,,,,,,,,*79
$IIHDM,,M*0C
$IIHDT,,T*0C
$IIMWD,,,,,08.43,N,04.34,M*51
$IIVDR,,,,,,N*0E
$IIVHW,,T,,M,06.02,N,11.14,K*54
$IIVPW,4.81,N,,*0C
$IIVTG,208.89,T,208.89,M,5.71,N,,,D*67
$IIMWV,323,T,08.45,N,A*2E
$IIVWT,037,L,08.45,N,04.35,M,,*25
$IIHDT,,T*0C
$GPWCV,,N,,D*5F
$GPXTE,A,A,,R,N,D*06
$GPZDA,095824,,,,00,*4A
$IIDBT,031.59,f,009.63,M,005.20,F*24
$GPGLL,6004.880,N,02332.079,E,095824,A,D*4C
$GPGSV,,,,,,,,,,,,,,,,,,,*79
$IIHDM,,M*0C
$IIHDT,,T*0C
$IIMWD,,,,,08.35,N,04.30,M*54
$IIVDR,,,,,,N*0E
$IIVHW,,T,,M,06.04,N,11.18,K*5E
$IIVPW,4.91,N,,*0D
$IIVTG,210.92,T,210.92,M,5.70,N,,,D*66
$IIMWV,340,R,13.80,N,A*2E
$IIVWT,035,L,08.37,N,04.31,M,,*26
$IIHDT,,T*0C
$GPWCV,,N,,D*5F
$GPXTE,A,A,,R,N,D*06
$GPZDA,095826,,,,00,*48
$IIDBT,032.11,f,009.79,M,005.29,F*29
$GPGLL,6004.878,N,02332.076,E,095826,A,D*46
$GPGSV,,,,,,,,,,,,,,,,,,,*79
$IIHDM,,M*0C
$IIHDT,,T*0C
$IIMWD,,,,,08.28,N,04.26,M*5F
$IIVDR,,,,,,N*0E
$IIVHW,,T,,M,06.05,N,11.20,K*54
$IIVPW,4.92,N,,*0E
$IIVTG,214.13,T,214.13,M,5.70,N,,,D*66
$IIMWV,325,T,08.37,N,A*2D
$IIVWT,036,L,08.37,N,04.31,M,,*25
$IIHDT,,T*0C
$GPWCV,,N,,D*5F
$GPXTE,A,A,,R,N,D*06
$GPZDA,095828,,,,00,*46
$IIDBT,032.44,f,009.89,M,005.34,F*2A
$GPGLL,6004.875,N,02332.072,E,095828,A,D*41
$GPGSV,,,,,,,,,,,,,,,,,,,*79
$IIHDM,,M*0C
$IIHDT,,T*0C
$IIMWD,,,,,08.33,N,04.29,M*5A
$IIVDR,,,,,,N*0E
$IIVHW,,T,,M,06.06,N,11.22,K*55
$IIVPW,5.05,N,,*01
$IIVTG,216.21,T,216.21,M,5.70,N,,,D*66
$IIMWV,340,R,13.80,N,A*2E
$IIVWT,035,L,08.39,N,04.32,M,,*2B
$IIHDT,,T*0C
$GPWCV,,N,,D*5F
$GPXTE,A,A,,R,N,D*06
$GPZDA,095830,,,,00,*4F
$IIDBT,032.97,f,010.05,M,005.43,F*28
$GPGLL,6004.873,N,02332.068,E,095830,A,D*45
$GPGSV,,,,,,,,,,,,,,,,,,,*79
$IIHDM,,M*0C
$IIHDT,,T*0C
$IIMWD,,,,,08.35,N,04.30,M*54
$IIVDR,,,,,,N*0E
$IIVHW,,T,,M,06.08,N,11.26,K*5F
$IIVPW,4.97,N,,*0B
$IIVTG,216.23,T,216.23,M,5.70,N,,,D*66
$IIMWV,325,T,08.45,N,A*28
$IIVWT,035,L,08.45,N,04.35,M,,*27
$IIHDT,,T*0C
$GPWCV,,N,,D*5F
$GPXTE,A,A,,R,N,D*06
$GPZDA,095832,,,,00,*4D
$IIDBT,033.36,f,010.17,M,005.49,F*2B
$GPGLL,6004.869,N,02332.063,E,095832,A,D*47
$GPGSV,,,,,,,,,,,,,,,,,,,*79
$IIHDM,,M*0C
$IIHDT,,T*0C
$IIMWD,,,,,07.87,N,04.05,M*54
$IIVDR,,,,,,N*0E
$IIVHW,,T,,M,06.05,N,11.20,K*54
$IIVPW,5.12,N,,*07
$IIVTG,214.68,T,214.68,M,5.70,N,,,D*66
$IIMWV,342,R,13.80,N,A*2C
$IIVWT,032,L,08.22,N,04.23,M,,*26
$IIHDT,,T*0C
$GPWCV,,N,,D*5F
$GPXTE,A,A,,R,N,D*06
$GPZDA,095834,,,,00,*4B
$IIDBT,034.11,f,010.40,M,005.62,F*22
$GPGLL,6004.866,N,02332.060,E,095835,A,D*4C
$GPGSV,,,,,,,,,,,,,,,,,,,*79
$IIHDM,,M*0C
$IIHDT,,T*0C
$IIMWD,,,,,08.20,N,04.22,M*53
$IIVDR,,,,,,N*0E
$IIVHW,,T,,M,06.06,N,11.22,K*55
$IIVPW,5.24,N,,*02
$IIVTG,213.56,T,213.56,M,5.78,N,,,D*6E
$IIMWV,331,T,08.20,N,A*2E
$IIVWT,029,L,08.20,N,04.22,M,,*2F
$IIHDT,,T*0C
$GPWCV,,N,,D*5F
$GPXTE,A,A,,R,N,D*06
$GPZDA,095836,,,,00,*49
$IIDBT,034.64,f,010.56,M,005.70,F*24
$GPGLL,6004.863,N,02332.056,E,095837,A,D*4E
$GPGSV,,,,,,,,,,,,,,,,,,,*79
$IIHDM,,M*0C
$IIHDT,,T*0C
$IIMWD,,,,,08.16,N,04.20,M*54
$IIVDR,,,,,,N*0E
$IIVHW,,T,,M,06.08,N,11.26,K*5F
$IIVPW,5.38,N,,*0F
$IIVTG,212.49,T,212.49,M,5.79,N,,,D*6F
$IIMWV,343,R,13.80,N,A*2D
$IIVWT,029,L,08.14,N,04.19,M,,*20
$IIHDT,,T*0C
$GPWCV,,N,,D*5F
$GPXTE,A,A,,R,N,D*06
$GPZDA,095838,,,,00,*47
$IIDBT,035.33,f,010.77,M,005.82,F*29
$GPGLL,6004.861,N,02332.053,E,095839,A,D*47
$GPGSV,,,,,,,,,,,,,,,,,,,*79
$IIHDM,,M*0C
$IIHDT,,T*0C
$IIMWD,,,,,07.73,N,03.98,M*5C
$IIVDR,,,,,,N*0E
$IIVHW,,T,,M,06.08,N,11.26,K*5F
$IIVPW,5.41,N,,*01
$IIVTG,211.37,T,211.37,M,5.72,N,,,D*64
$IIMWV,332,T,07.67,N,A*21
$IIVWT,028,L,07.67,N,03.95,M,,*29
$IIHDT,,T*0C
$GPWCV,,N,,D*5F
$GPXTE,A,A,,R,N,D*06
$GPZDA,095840,,,,00,*48
$IIDBT,035.69,f,010.88,M,005.88,F*2C
$GPGLL,6004.858,N,02332.049,E,095841,A,D*49
$GPGSV,,,,,,,,,,,,,,,,,,,*79
$IIHDM,,M*0C
$IIHDT,,T*0C
$IIMWD,,,,,07.60,N,03.91,M*57
$IIVDR,,,,,,N*0E
$IIVHW,,T,,M,06.09,N,11.27,K*5F
$IIVPW,5.38,N,,*0F
$IIVTG,211.42,T,211.42,M,5.71,N,,,D*67
$IIMWV,345,R,13.41,N,A*26
$IIVWT,028,L,07.61,N,03.92,M,,*28
$IIHDT,,T*0C
$GPWCV,,N,,D*5F
$GPXTE,A,A,,R,N,D*06
$GPZDA,095842,,,,00,*4A
$IIDBT,036.41,f,011.10,M,005.99,F*25
$GPGLL,6004.855,N,02332.046,E,095843,A,D*49
$GPGSV,,,,,,,,,,,,,,,,,,,*79
$IIHDM,,M*0C
$IIHDT,,T*0C
$IIMWD,,,,,07.58,N,03.90,M*5D
$IIVDR,,,,,,N*0E
$IIVHW,,T,,M,06.11,N,11.31,K*51
$IIVPW,5.64,N,,*06
$IIVTG,210.93,T,210.93,M,5.70,N,,,D*66
$IIMWV,338,T,07.50,N,A*2F
$IIVWT,022,L,07.50,N,03.86,M,,*25
$IIHDT,,T*0C
$GPWCV,,N,,D*5F
$GPXTE,A,A,,R,N,D*06
$GPZDA,095844,,,,00,*4C
$IIDBT,037.07,f,011.30,M,006.10,F*26
$GPGLL,6004.852,N,02332.043,E,095845,A,D*4D
$GPGSV,,,,,,,,,,,,,,,,,,,*79
$IIHDM,,M*0C
$IIHDT,,T*0C
$IIMWD,,,,,07.91,N,04.07,M*51
$IIVDR,,,,,,N*0E
$IIVHW,,T,,M,06.12,N,11.33,K*50
$IIVPW,5.73,N,,*00
$IIVTG,208.83,T,208.83,M,5.78,N,,,D*6E
$IIMWV,350,R,14.19,N,A*28
$IIVWT,018,L,08.20,N,04.22,M,,*2D
$IIHDT,,T*0C
$GPWCV,,N,,D*5F
$GPXTE,A,A,,R,N,D*06
$GPZDA,095847,,,,00,*4F
$IIDBT,037.49,f,011.43,M,006.17,F*2F
$GPGLL,6004.849,N,02332.040,E,095847,A,D*46
$GPGSV,,,,,,,,,,,,,,,,,,,*79
$IIHDM,,M*0C
$IIHDT,,T*0C
$IIMWD,,,,,07.83,N,04.03,M*56
$IIVDR,,,,,,N*0E
$IIVHW,,T,,M,06.12,N,11.33,K*50
$IIVPW,5.84,N,,*08
$IIVTG,206.51,T,206.51,M,5.72,N,,,D*64
$IIMWV,339,T,07.95,N,A*27
$IIVWT,021,L,07.95,N,04.09,M,,*2F
$IIHDT,,T*0C
$GPWCV,,N,,D*5F
$GPXTE,A,A,,R,N,D*06
$GPZDA,095849,,,,00,*41
$IIDBT,038.15,f,011.63,M,006.28,F*27
$GPGLL,6004.847,N,02332.037,E,095849,A,D*46
$GPGSV,,,,,,,,,,,,,,,,,,,*79
$IIHDM,,M*0C
$IIHDT,,T*0C
$IIMWD,,,,,07.96,N,04.10,M*50
$IIVDR,,,,,,N*0E
$IIVHW,,T,,M,06.11,N,11.31,K*51
$IIVPW,5.69,N,,*0B
$IIVTG,206.30,T,206.30,M,5.70,N,,,D*66
$IIMWV,352,R,13.80,N,A*2D
$IIVWT,015,L,07.79,N,04.01,M,,*22
$IIHDT,,T*0C
$GPWCV,,N,,D*5F
$GPXTE,A,A,,R,N,D*06
$GPZDA,095851,,,,00,*48
$IIDBT,038.38,f,011.70,M,006.32,F*21
$GPGLL,6004.844,N,02332.034,E,095851,A,D*4F
$GPGSV,,,,,,,,,,,,,,,,,,,*79
$IIHDM,,M*0C
$IIHDT,,T*0C
$IIMWD,,,,,08.28,N,04.26,M*5F
$IIVDR,,,,,,N*0E
$IIVHW,,T,,M,06.11,N,11.31,K*51
$IIVPW,5.73,N,,*00
$IIVTG,207.18,T,207.18,M,5.70,N,,,D*66
$IIMWV,340,T,08.53,N,A*2C
$IIVWT,020,L,08.53,N,04.39,M,,*28
$IIHDT,,T*0C
$GPWCV,,N,,D*5F
$GPXTE,A,A,,R,N,D*06
$GPZDA,095853,,,,00,*4A
$IIDBT,038.84,f,011.84,M,006.39,F*26
$GPGLL,6004.841,N,02332.031,E,095853,A,D*4D
$GPGSV,,,,,,,,,,,,,,,,,,,*79
$IIHDM,,M*0C
$IIHDT,,T*0C
$IIMWD,,,,,08.26,N,04.25,M*52
$IIVDR,,,,,,N*0E
$IIVHW,,T,,M,06.11,N,11.31,K*51
$IIVPW,5.92,N,,*0F
$IIVTG,208.47,T,208.47,M,5.70,N,,,D*66
$IIMWV,351,R,14.38,N,A*2A
$IIVWT,015,L,08.30,N,04.27,M,,*24
$IIHDT,,T*0C
$GPWCV,,N,,D*5F
$GPXTE,A,A,,R,N,D*06
$GPZDA,095855,,,,00,*4C
$IIDBT,039.17,f,011.94,M,006.45,F*27
$GPGLL,6004.838,N,02332.028,E,095855,A,D*4D
$GPGSV,,,,,,,,,,,,,,,,,,,*79
$IIHDM,,M*0C
$IIHDT,,T*0C
$IIMWD,,,,,08.35,N,04.30,M*54
$IIVDR,,,,,,N*0E
$IIVHW,,T,,M,06.11,N,11.31,K*51
$IIVPW,5.93,N,,*0E
$IIVTG,208.19,T,208.19,M,5.70,N,,,D*66
$IIMWV,349,T,08.70,N,A*24
$IIVWT,011,L,08.70,N,04.48,M,,*2D
$IIHDT,,T*0C
$GPWCV,,N,,D*5F
$GPXTE,A,A,,R,N,D*06
$GPZDA,095857,,,,00,*4E
$IIDBT,039.46,f,012.03,M,006.50,F*2A
$GPGLL,6004.835,N,02332.025,E,095857,A,D*4F
$GPGSV,,,,,,,,,,,,,,,,,,,*79
$IIHDM,,M*0C
$IIHDT,,T*0C
$IIMWD,,,,,08.70,N,04.48,M*5A
$IIVDR,,,,,,N*0E
$IIVHW,,T,,M,06.12,N,11.33,K*50
$IIVPW,5.88,N,,*04
$IIVTG,207.10,T,207.10,M,5.78,N,,,D*6E
$IIMWV,349,R,14.77,N,A*28
$IIVWT,018,L,08.90,N,04.58,M,,*2B
$IIHDT,,T*0C
$GPWCV,,N,,D*5F
$GPXTE,A,A,,R,N,D*06
$GPZDA,095859,,,,00,*40
$IIDBT,039.79,f,012.13,M,006.55,F*22
$GPGLL,6004.832,N,02332.023,E,095859,A,D*40
$GPGSV,,,,,,,,,,,,,,,,,,,*79
$IIHDM,,M*0C
$IIHDT,,T*0C
$IIMWD,,,,,08.47,N,04.36,M*57
$IIVDR,,,,,,N*0E
$IIVHW,,T,,M,06.11,N,11.31,K*51
$IIVPW,5.83,N,,*0F
$IIVTG,206.02,T,206.02,M,5.79,N,,,D*6F
$IIMWV,347,T,08.45,N,A*2C
$IIVWT,013,L,08.45,N,04.35,M,,*23
$IIHDT,,T*0C
$GPWCV,,N,,D*5F
$GPXTE,A,A,,R,N,D*06
$GPZDA,095901,,,,00,*4C
$IIDBT,040.05,f,012.21,M,006.59,F*2A
$GPGLL,6004.830,N,02332.020,E,095901,A,D*4D
$GPGSV,,,,,,,,,,,,,,,,,,,*79
$IIHDM,,M*0C
$IIHDT,,T*0C
$IIMWD,,,,,08.24,N,04.24,M*51
$IIVDR,,,,,,N*0E
$IIVHW,,T,,M,06.08,N,11.26,K*5F
$IIVPW,5.79,N,,*0A
$IIVTG,202.86,T,202.86,M,5.75,N,,,D*63
$IIMWV,350,R,14.19,N,A*28
$IIVWT,017,L,08.28,N,04.26,M,,*2E
$IIHDT,,T*0C
$GPWCV,,N,,D*5F
$GPXTE,A,A,,R,N,D*06
$GPZDA,095903,,,,00,*4E
$IIDBT,040.28,f,012.28,M,006.63,F*25
$GPGLL,6004.827,N,02332.018,E,095903,A,D*42
$GPGSV,,,,,,,,,,,,,,,,,,,*79
$IIHDM,,M*0C
$IIHDT,,T*0C
$IIMWD,,,,,08.39,N,04.32,M*5A
$IIVDR,,,,,,N*0E
$IIVHW,,T,,M,06.07,N,11.24,K*52
$IIVPW,5.84,N,,*08
$IIVTG,203.81,T,203.81,M,5.71,N,,,D*67
$IIMWV,343,T,08.53,N,A*2F
$IIVWT,017,L,08.53,N,04.39,M,,*2C
$IIHDT,,T*0C
$GPWCV,,N,,D*5F
$GPXTE,A,A,,R,N,D*06
$GPZDA,095905,,,,00,*48
$IIDBT,040.58,f,012.37,M,006.68,F*27
$GPGLL,6004.824,N,02332.015,E,095905,A,D*4A
$GPGSV,,,,,,,,,,,,,,,,,,,*79
$IIHDM,,M*0C
$IIHDT,,T*0C
$IIMWD,,,,,08.82,N,04.54,M*5A
$IIVDR,,,,,,N*0E
$IIVHW,,T,,M,06.07,N,11.24,K*52
$IIVPW,5.79,N,,*0A
$IIVTG,204.30,T,204.30,M,5.78,N,,,D*6E
$IIMWV,351,R,14.38,N,A*2A
$IIVWT,016,L,08.43,N,04.34,M,,*21
$IIHDT,,T*0C
$GPWCV,,N,,D*5F
$GPXTE,A,A,,R,N,D*06
$GPZDA,095907,,,,00,*4A
$IIDBT,040.77,f,012.43,M,006.71,F*21
$GPGLL,6004.821,N,02332.012,E,095907,A,D*4A
$GPGSV,,,,,,,,,,,,,,,,,,,*79
$IIHDM,,M*0C
$IIHDT,,T*0C
$IIMWD,,,,,08.49,N,04.37,M*58
$IIVDR,,,,,,N*0E
$IIVHW,,T,,M,06.08,N,11.26,K*5F
$IIVPW,5.73,N,,*00
$IIVTG,204.93,T,204.93,M,5.77,N,,,D*61
$IIMWV,343,T,08.37,N,A*2D
$IIVWT,017,L,08.37,N,04.31,M,,*26
$IIHDT,,T*0C
$GPWCV,,N,,D*5F
$GPXTE,A,A,,R,N,D*06
$GPZDA,095909,,,,00,*44
$IIDBT,041.10,f,012.53,M,006.77,F*26
$GPGLL,6004.818,N,02332.010,E,095909,A,D*4C
$GPGSV,,,,,,,,,,,,,,,,,,,*79
$IIHDM,,M*0C
$IIHDT,,T*0C
$IIMWD,,,,,08.55,N,04.40,M*55
$IIVDR,,,,,,N*0E
$IIVHW,,T,,M,06.07,N,11.24,K*52
$IIVPW,5.70,N,,*03
$IIVTG,205.05,T,205.05,M,5.77,N,,,D*61
$IIMWV,350,R,14.38,N,A*2B
$IIVWT,017,L,08.43,N,04.34,M,,*20
$IIHDT,,T*0C
$GPWCV,,N,,D*5F
$GPXTE,A,A,,R,N,D*06
$GPZDA,095911,,,,00,*4D
$IIDBT,041.27,f,012.58,M,006.79,F*27
$GPGLL,6004.815,N,02332.007,E,095911,A,D*4E
$GPGSV,,,,,,,,,,,,,,,,,,,*79
$IIHDM,,M*0C
$IIHDT,,T*0C
$IIMWD,,,,,08.41,N,04.33,M*54
$IIVDR,,,,,,N*0E
$IIVHW,,T,,M,06.07,N,11.24,K*52
$IIVPW,5.85,N,,*09
$IIVTG,205.07,T,205.07,M,5.74,N,,,D*62
$IIMWV,344,T,08.33,N,A*2E
$IIVWT,016,L,08.33,N,04.29,M,,*2A
$IIHDT,,T*0C
$GPWCV,,N,,D*5F
$GPXTE,A,A,,R,N,D*06
$GPZDA,095913,,,,00,*4F
$IIDBT,041.33,f,012.60,M,006.81,F*2E
$GPGLL,6004.812,N,02332.004,E,095913,A,D*48
$GPGSV,,,,,,,,,,,,,,,,,,,*79
$IIHDM,,M*0C
$IIHDT,,T*0C
$IIMWD,,,,,08.22,N,04.23,M*50
$IIVDR,,,,,,N*0E
$IIVHW,,T,,M,06.07,N,11.24,K*52
$IIVPW,5.80,N,,*0C
$IIVTG,204.87,T,204.87,M,5.71,N,,,D*67
$IIMWV,348,R,14.38,N,A*22
$IIVWT,021,L,08.51,N,04.38,M,,*2A
$IIHDT,,T*0C
$GPWCV,,N,,D*5F
$GPXTE,A,A,,R,N,D*06
$GPZDA,095915,,,,00,*49
$IIDBT,041.43,f,012.63,M,006.82,F*29
$GPGLL,6004.808,N,02332.001,E,095915,A,D*40
$GPGSV,,,,,,,,,,,,,,,,,,,*79
$IIHDM,,M*0C
$IIHDT,,T*0C
$IIMWD,,,,,08.82,N,04.54,M*5A
$IIVDR,,,,,,N*0E
$IIVHW,,T,,M,06.07,N,11.24,K*52
$IIVPW,5.85,N,,*09
$IIVTG,205.02,T,205.02,M,5.70,N,,,D*66
$IIMWV,345,T,08.72,N,A*2A
$IIVWT,015,L,08.72,N,04.49,M,,*2A
$IIHDT,,T*0C
$GPWCV,,N,,D*5F
$GPXTE,A,A,,R,N,D*06
$GPZDA,095917,,,,00,*4B
$IIDBT,041.46,f,012.64,M,006.83,F*2A
$GPGLL,6004.805,N,02331.998,E,095918,A,D*4A
$GPGSV,,,,,,,,,,,,,,,,,,,*79
$IIHDM,,M*0C
$IIHDT,,T*0C
$IIMWD,,,,,08.51,N,04.38,M*5E
$IIVDR,,,,,,N*0E
$IIVHW,,T,,M,06.07,N,11.24,K*52
$IIVPW,5.71,N,,*02
$IIVTG,204.83,T,204.83,M,5.70,N,,,D*66
$IIMWV,349,R,14.38,N,A*23
$IIVWT,020,L,08.47,N,04.36,M,,*22
$IIHDT,,T*0C
$GPWCV,,N,,D*5F
$GPXTE,A,A,,R,N,D*06
$GPZDA,095919,,,,00,*45
$IIDBT,041.53,f,012.66,M,006.84,F*2B
$GPGLL,6004.802,N,02331.995,E,095920,A,D*4B
$GPGSV,,,,,,,,,,,,,,,,,,,*79
$IIHDM,,M*0C
$IIHDT,,T*0C
$IIMWD,,,,,08.49,N,04.37,M*58
$IIVDR,,,,,,N*0E
$IIVHW,,T,,M,06.06,N,11.22,K*55
$IIVPW,5.77,N,,*04
$IIVTG,205.28,T,205.28,M,5.70,N,,,D*66
$IIMWV,343,T,08.43,N,A*2E
$IIVWT,017,L,08.43,N,04.34,M,,*20
$IIHDT,,T*0C
$GPWCV,,N,,D*5F
$GPXTE,A,A,,R,N,D*06
$GPZDA,095921,,,,00,*4E
$IIDBT,041.53,f,012.66,M,006.84,F*2B
$GPGLL,6004.799,N,02331.993,E,095922,A,D*42
$GPGSV,,,,,,,,,,,,,,,,,,,*79
$IIHDM,,M*0C
$IIHDT,,T*0C
$IIMWD,,,,,08.31,N,04.28,M*59
$IIVDR,,,,,,N*0E
$IIVHW,,T,,M,06.07,N,11.24,K*52
$IIVPW,5.70,N,,*03
$IIVTG,205.92,T,205.92,M,5.70,N,,,D*66
$IIMWV,349,R,14.19,N,A*20
$IIVWT,020,L,08.37,N,04.31,M,,*22
$IIHDT,,T*0C
$GPWCV,,N,,D*5F
$GPXTE,A,A,,R,N,D*06
$GPZDA,095923,,,,00,*4C
$IIDBT,041.60,f,012.68,M,006.85,F*24
$GPGLL,6004.796,N,02331.990,E,095924,A,D*48
$GPGSV,,,,,,,,,,,,,,,,,,,*79
$IIHDM,,M*0C
$IIHDT,,T*0C
$IIMWD,,,,,08.55,N,04.40,M*55
$IIVDR,,,,,,N*0E
$IIVHW,,T,,M,06.05,N,11.20,K*54
$IIVPW,5.67,N,,*05
$IIVTG,205.93,T,205.93,M,5.70,N,,,D*66
$IIMWV,342,T,08.55,N,A*28
$IIVWT,018,L,08.55,N,04.40,M,,*2B
$IIHDT,,T*0C
$GPWCV,,N,,D*5F
$GPXTE,A,A,,R,N,D*06
$GPZDA,095925,,,,00,*4A
$IIDBT,041.60,f,012.68,M,006.85,F*24
$GPGLL,6004.794,N,02331.987,E,095926,A,D*4E
$GPGSV,,,,,,,,,,,,,,,,,,,*79
$IIHDM,,M*0C
$IIHDT,,T*0C
$IIMWD,,,,,08.90,N,04.58,M*55
$IIVDR,,,,,,N*0E
$IIVHW,,T,,M,06.04,N,11.18,K*5E
$IIVPW,5.74,N,,*07
$IIVTG,205.73,T,205.73,M,5.70,N,,,D*66
$IIMWV,349,R,14.77,N,A*28
$IIVWT,019,L,08.86,N,04.56,M,,*23
$IIHDT,,T*0C
$GPWCV,,N,,D*5F
$GPXTE,A,A,,R,N,D*06
$GPZDA,095927,,,,00,*48
$IIDBT,041.66,f,012.70,M,006.86,F*28
$GPGLL,6004.791,N,02331.985,E,095928,A,D*47
$GPGSV,,,,,,,,,,,,,,,,,,,*79
$IIHDM,,M*0C
$IIHDT,,T*0C
$IIMWD,,,,,08.96,N,04.61,M*59
$IIVDR,,,,,,N*0E
$IIVHW,,T,,M,06.05,N,11.20,K*54
$IIVPW,5.67,N,,*05
$IIVTG,205.56,T,205.56,M,5.70,N,,,D*66
$IIMWV,343,T,08.78,N,A*26
$IIVWT,017,L,08.78,N,04.52,M,,*28
$IIHDT,,T*0C
$GPWCV,,N,,D*5F
$GPXTE,A,A,,R,N,D*06
$GPZDA,095930,,,,00,*4E
$IIDBT,041.69,f,012.71,M,006.87,F*27
$GPGLL,6004.788,N,02331.982,E,095930,A,D*41
$GPGSV,,,,,,,,,,,,,,,,,,,*79
$IIHDM,,M*0C
$IIHDT,,T*0C
$IIMWD,,,,,08.78,N,04.52,M*59
$IIVDR,,,,,,N*0E
$IIVHW,,T,,M,06.04,N,11.18,K*5E
$IIVPW,5.83,N,,*0F
$IIVTG,205.74,T,205.74,M,5.70,N,,,D*66
$IIMWV,349,R,14.77,N,A*28
$IIVWT,018,L,09.01,N,04.64,M,,*2D
$IIHDT,,T*0C
$GPWCV,,N,,D*5F
$GPXTE,A,A,,R,N,D*06
$GPZDA,095932,,,,00,*4C
$IIDBT,041.76,f,012.73,M,006.88,F*24
$GPGLL,6004.785,N,02331.979,E,095932,A,D*4A
$GPGSV,,,,,,,,,,,,,,,,,,,*79
$IIHDM,,M*0C
$IIHDT,,T*0C
$IIMWD,,,,,08.94,N,04.60,M*5A
$IIVDR,,,,,,N*0E
$IIVHW,,T,,M,06.03,N,11.16,K*57
$IIVPW,5.66,N,,*04
$IIVTG,205.16,T,205.16,M,5.70,N,,,D*66
$IIMWV,340,T,08.96,N,A*25
$IIVWT,020,L,08.96,N,04.61,M,,*2C
$IIHDT,,T*0C
$GPWCV,,N,,D*5F
$GPXTE,A,A,,R,N,D*06
$GPZDA,095934,,,,00,*4A
$IIDBT,041.73,f,012.72,M,006.87,F*2F
$GPGLL,6004.782,N,02331.976,E,095934,A,D*44
$GPGSV,,,,,,,,,,,,,,,,,,,*79
$IIHDM,,M*0C
$IIHDT,,T*0C
$IIMWD,,,,,08.90,N,04.58,M*55
$IIVDR,,,,,,N*0E
$IIVHW,,T,,M,06.05,N,11.20,K*54
$IIVPW,5.73,N,,*00
$IIVTG,204.92,T,204.92,M,5.70,N,,,D*66
$IIMWV,349,R,15.16,N,A*2E
$IIVWT,019,L,09.33,N,04.80,M,,*27
$IIHDT,,T*0C
$GPWCV,,N,,D*5F
$GPXTE,A,A,,R,N,D*06
$GPZDA,095936,,,,00,*48
$IIDBT,041.79,f,012.74,M,006.88,F*2C
$GPGLL,6004.779,N,02331.974,E,095936,A,D*40
$GPGSV,,,,,,,,,,,,,,,,,,,*79
$IIHDM,,M*0C
$IIHDT,,T*0C
$IIMWD,,,,,09.36,N,04.82,M*5F
$IIVDR,,,,,,N*0E
$IIVHW,,T,,M,06.04,N,11.18,K*5E
$IIVPW,5.59,N,,*08
$IIVTG,205.90,T,205.90,M,5.75,N,,,D*63
$IIMWV,339,T,08.86,N,A*2A
$IIVWT,021,L,08.86,N,04.56,M,,*28
$IIHDT,,T*0C
$GPWCV,,N,,D*5F
$GPXTE,A,A,,R,N,D*06
$GPZDA,095938,,,,00,*46
$IIDBT,041.73,f,012.72,M,006.87,F*2F
$GPGLL,6004.776,N,02331.971,E,095938,A,D*44
$GPGSV,,,,,,,,,,,,,,,,,,,*79
$IIHDM,,M*0C
$IIHDT,,T*0C
$IIMWD,,,,,08.90,N,04.58,M*55
$IIVDR,,,,,,N*0E
$IIVHW,,T,,M,06.04,N,11.18,K*5E
$IIVPW,5.73,N,,*00
$IIVTG,206.35,T,206.35,M,5.74,N,,,D*62
$IIMWV,349,R,14.77,N,A*28
$IIVWT,019,L,08.88,N,04.57,M,,*2C
$IIHDT,,T*0C
$GPWCV,,N,,D*5F
$GPXTE,A,A,,R,N,D*06
$GPZDA,095940,,,,00,*49
$IIDBT,041.79,f,012.74,M,006.88,F*2C
$GPGLL,6004.773,N,02331.968,E,095940,A,D*46
$GPGSV,,,,,,,,,,,,,,,,,,,*79
$IIHDM,,M*0C
$IIHDT,,T*0C
$IIMWD,,,,,08.92,N,04.59,M*56
$IIVDR,,,,,,N*0E
$IIVHW,,T,,M,06.05,N,11.20,K*54
$IIVPW,5.68,N,,*0A
$IIVTG,205.91,T,205.91,M,5.71,N,,,D*67
$IIMWV,342,T,08.94,N,A*25
$IIVWT,018,L,08.94,N,04.60,M,,*24
$IIHDT,,T*0C
$GPWCV,,N,,D*5F
$GPXTE,A,A,,R,N,D*06
$GPZDA,095942,,,,00,*4B
$IIDBT,041.82,f,012.75,M,006.89,F*28
$GPGLL,6004.770,N,02331.965,E,095942,A,D*4A
$GPGSV,,,,,,,,,,,,,,,,,,,*79
$IIHDM,,M*0C
$IIHDT,,T*0C
$IIMWD,,,,,08.88,N,04.57,M*53
$IIVDR,,,,,,N*0E
$IIVHW,,T,,M,06.05,N,11.20,K*54
$IIVPW,5.74,N,,*07
$IIVTG,205.48,T,205.48,M,5.70,N,,,D*66
$IIMWV,349,R,14.77,N,A*28
$IIVWT,019,L,08.90,N,04.58,M,,*2A
$IIHDT,,T*0C
$GPWCV,,N,,D*5F
$GPXTE,A,A,,R,N,D*06
$GPZDA,095944,,,,00,*4D
$IIDBT,041.82,f,012.75,M,006.89,F*28
$GPGLL,6004.768,N,02331.963,E,095944,A,D*43
$GPGSV,,,,,,,,,,,,,,,,,,,*79
$IIHDM,,M*0C
$IIHDT,,T*0C
$IIMWD,,,,,09.23,N,04.75,M*53
$IIVDR,,,,,,N*0E
$IIVHW,,T,,M,06.04,N,11.18,K*5E
$IIVPW,5.76,N,,*05
$IIVTG,205.42,T,205.42,M,5.70,N,,,D*66
$IIMWV,340,T,09.27,N,A*2E
$IIVWT,020,L,09.27,N,04.77,M,,*20
$IIHDT,,T*0C
$GPWCV,,N,,D*5F
$GPXTE,A,A,,R,N,D*06
$GPZDA,095946,,,,00,*4F
$IIDBT,041.86,f,012.76,M,006.89,F*2F
$GPGLL,6004.765,N,02331.960,E,095946,A,D*4F
$GPGSV,,,,,,,,,,,,,,,,,,,*79
$IIHDM,,M*0C
$IIHDT,,T*0C
$IIMWD,,,,,09.33,N,04.80,M*58
$IIVDR,,,,,,N*0E
$IIVHW,,T,,M,06.06,N,11.22,K*55
$IIVPW,5.65,N,,*07
$IIVTG,205.36,T,205.36,M,5.70,N,,,D*66
$IIMWV,348,R,14.77,N,A*29
$IIVWT,020,L,09.00,N,04.63,M,,*20
$IIHDT,,T*0C
$GPWCV,,N,,D*5F
$GPXTE,A,A,,R,N,D*06
$GPZDA,095948,,,,00,*41
$IIDBT,041.89,f,012.77,M,006.90,F*29
$GPGLL,6004.762,N,02331.957,E,095948,A,D*42
$GPGSV,,,,,,,,,,,,,,,,,,,*79
$IIHDM,,M*0C
$IIHDT,,T*0C
$IIMWD,,,,,09.00,N,04.63,M*55
$IIVDR,,,,,,N*0E
$IIVHW,,T,,M,06.03,N,11.16,K*57
$IIVPW,5.55,N,,*04
$IIVTG,205.76,T,205.76,M,5.70,N,,,D*66
$IIMWV,338,T,09.31,N,A*26
$IIVWT,022,L,09.31,N,04.79,M,,*2B
$IIHDT,,T*0C
$GPWCV,,N,,D*5F
$GPXTE,A,A,,R,N,D*06
$GPZDA,095950,,,,00,*48
$IIDBT,041.86,f,012.76,M,006.89,F*2F
$GPGLL,6004.759,N,02331.954,E,095950,A,D*40
$GPGSV,,,,,,,,,,,,,,,,,,,*79
$IIHDM,,M*0C
$IIHDT,,T*0C
$IIMWD,,,,,09.38,N,04.83,M*50
$IIVDR,,,,,,N*0E
$IIVHW,,T,,M,06.03,N,11.16,K*57
$IIVPW,5.62,N,,*00
$IIVTG,205.69,T,205.69,M,5.73,N,,,D*65
$IIMWV,347,R,15.16,N,A*20
$IIVWT,022,L,09.40,N,04.84,M,,*2F
$IIHDT,,T*0C
$GPWCV,,N,,D*5F
$GPXTE,A,A,,R,N,D*06
$GPZDA,095952,,,,00,*4A
$IIDBT,041.89,f,012.77,M,006.90,F*29
$GPGLL,6004.756,N,02331.951,E,095952,A,D*48
$GPGSV,,,,,,,,,,,,,,,,,,,*79
$IIHDM,,M*0C
$IIHDT,,T*0C
$IIMWD,,,,,09.27,N,04.77,M*55
$IIVDR,,,,,,N*0E
$IIVHW,,T,,M,06.05,N,11.20,K*54
$IIVPW,5.70,N,,*03
$IIVTG,206.02,T,206.02,M,5.71,N,,,D*67
$IIMWV,339,T,09.34,N,A*22
$IIVWT,021,L,09.34,N,04.81,M,,*2A
$IIHDT,,T*0C
$GPWCV,,N,,D*5F
$GPXTE,A,A,,R,N,D*06
$GPZDA,095954,,,,00,*4C
$IIDBT,041.92,f,012.78,M,006.90,F*2C
$GPGLL,6004.753,N,02331.948,E,095954,A,D*43
$GPGSV,,,,,,,,,,,,,,,,,,,*79
$IIHDM,,M*0C
$IIHDT,,T*0C
$IIMWD,,,,,09.29,N,04.78,M*54
$IIVDR,,,,,,N*0E
$IIVHW,,T,,M,06.05,N,11.20,K*54
$IIVPW,5.70,N,,*03
$IIVTG,206.26,T,206.26,M,5.70,N,,,D*66
$IIMWV,348,R,15.16,N,A*2F
$IIVWT,020,L,09.27,N,04.77,M,,*20
$IIHDT,,T*0C
$GPWCV,,N,,D*5F
$GPXTE,A,A,,R,N,D*06
$GPZDA,095956,,,,00,*4E
$IIDBT,041.96,f,012.79,M,006.91,F*28
$GPGLL,6004.750,N,02331.946,E,095956,A,D*4C
$GPGSV,,,,,,,,,,,,,,,,,,,*79
$IIHDM,,M*0C
$IIHDT,,T*0C
$IIMWD,,,,,09.23,N,04.75,M*53
$IIVDR,,,,,,N*0E
$IIVHW,,T,,M,06.06,N,11.22,K*55
$IIVPW,5.76,N,,*05
$IIVTG,206.02,T,206.02,M,5.75,N,,,D*63
$IIMWV,341,T,09.31,N,A*28
$IIVWT,019,L,09.31,N,04.79,M,,*23
$IIHDT,,T*0C
$GPWCV,,N,,D*5F
$GPXTE,A,A,,R,N,D*06
$GPZDA,095958,,,,00,*40
$IIDBT,041.99,f,012.80,M,006.91,F*21
$GPGLL,6004.746,N,02331.942,E,095958,A,D*41
$GPGSV,,,,,,,,,,,,,,,,,,,*79
$IIHDM,,M*0C
$IIHDT,,T*0C
$IIMWD,,,,,09.31,N,04.79,M*5C
$IIVDR,,,,,,N*0E
$IIVHW,,T,,M,06.06,N,11.22,K*55
$IIVPW,5.63,N,,*01
$IIVTG,205.65,T,205.65,M,5.79,N,,,D*6F
$IIMWV,347,R,15.16,N,A*20
$IIVWT,021,L,09.31,N,04.79,M,,*28
$IIHDT,,T*0C
$GPWCV,,N,,D*5F
$GPXTE,A,A,,R,N,D*06
$GPZDA,100000,,,,00,*49
$IIDBT,042.02,f,012.81,M,006.92,F*22
$GPGLL,6004.743,N,02331.939,E,100001,A,D*40
$GPGSV,,,,,,,,,,,,,,,,,,,*79
$IIHDM,,M*0C
$IIHDT,,T*0C
$IIMWD,,,,,09.25,N,04.76,M*56
$IIVDR,,,,,,N*0E
$IIVHW,,T,,M,06.05,N,11.20,K*54
$IIVPW,5.69,N,,*0B
$IIVTG,205.86,T,205.86,M,5.80,N,,,D*69
$IIMWV,340,T,09.33,N,A*2B
$IIVWT,020,L,09.33,N,04.80,M,,*2D
$IIHDT,,T*0C
$GPWCV,,N,,D*5F
$GPXTE,A,A,,R,N,D*06
$GPZDA,100002,,,,00,*4B
$IIDBT,042.05,f,012.82,M,006.92,F*26
$GPGLL,6004.740,N,02331.936,E,100003,A,D*4E
$GPGSV,,,,,,,,,,,,,,,,,,,*79
$IIHDM,,M*0C
$IIHDT,,T*0C
$IIMWD,,,,,09.36,N,04.82,M*5F
$IIVDR,,,,,,N*0E
$IIVHW,,T,,M,06.06,N,11.22,K*55
$IIVPW,5.61,N,,*03
$IIVTG,207.36,T,207.36,M,5.72,N,,,D*64
$IIMWV,347,R,15.16,N,A*20
$IIVWT,021,L,09.31,N,04.79,M,,*28
$IIHDT,,T*0C
$GPWCV,,N,,D*5F
$GPXTE,A,A,,R,N,D*06
$GPZDA,100004,,,,00,*4D
$IIDBT,042.05,f,012.82,M,006.92,F*26
$GPGLL,6004.737,N,02331.933,E,100005,A,D*4D
$GPGSV,,,,,,,,,,,,,,,,,,,*79
$IIHDM,,M*0C
$IIHDT,,T*0C
$IIMWD,,,,,08.88,N,04.57,M*53
$IIVDR,,,,,,N*0E
$IIVHW,,T,,M,06.08,N,11.26,K*5F
$IIVPW,5.73,N,,*00
$IIVTG,208.39,T,208.39,M,5.71,N,,,D*67
$IIMWV,341,T,09.33,N,A*2A
$IIVWT,019,L,09.33,N,04.80,M,,*27
$IIHDT,,T*0C
$GPWCV,,N,,D*5F
$GPXTE,A,A,,R,N,D*06
$GPZDA,100006,,,,00,*4F
$IIDBT,042.05,f,012.82,M,006.92,F*26
$GPGLL,6004.735,N,02331.930,E,100007,A,D*4E
$GPGSV,,,,,,,,,,,,,,,,,,,*79
$IIHDM,,M*0C
$IIHDT,,T*0C
$IIMWD,,,,,09.23,N,04.75,M*53
$IIVDR,,,,,,N*0E
$IIVHW,,T,,M,06.07,N,11.24,K*52
$IIVPW,5.77,N,,*04
$IIVTG,208.32,T,208.32,M,5.70,N,,,D*66
$IIMWV,349,R,15.16,N,A*2E
$IIVWT,018,L,09.29,N,04.78,M,,*2A
$IIHDT,,T*0C
$GPWCV,,N,,D*5F
$GPXTE,A,A,,R,N,D*06
$GPZDA,100008,,,,00,*41
$IIDBT,042.05,f,012.82,M,006.92,F*26
$GPGLL,6004.732,N,02331.927,E,100009,A,D*41
$GPGSV,,,,,,,,,,,,,,,,,,,*79
$IIHDM,,M*0C
$IIHDT,,T*0C
$IIMWD,,,,,09.34,N,04.81,M*5E
$IIVDR,,,,,,N*0E
$IIVHW,,T,,M,06.07,N,11.24,K*52
$IIVPW,5.66,N,,*04
$IIVTG,207.63,T,207.63,M,5.78,N,,,D*6E
$IIMWV,341,T,09.31,N,A*28
$IIVWT,019,L,09.31,N,04.79,M,,*23
$IIHDT,,T*0C
$GPWCV,,N,,D*5F
$GPXTE,A,A,,R,N,D*06
$GPZDA,100010,,,,00,*48
$IIDBT,042.12,f,012.84,M,006.94,F*20
$GPGLL,6004.729,N,02331.924,E,100011,A,D*41
$GPGSV,,,,,,,,,,,,,,,,,,,*79
$IIHDM,,M*0C
$IIHDT,,T*0C
$IIMWD,,,,,09.29,N,04.78,M*54
$IIVDR,,,,,,N*0E
$IIVHW,,T,,M,06.07,N,11.24,K*52
$IIVPW,5.69,N,,*0B
$IIVTG,207.06,T,207.06,M,5.79,N,,,D*6F
$IIMWV,348,R,15.16,N,A*2F
$IIVWT,020,L,09.25,N,04.76,M,,*23
$IIHDT,,T*0C
$GPWCV,,N,,D*5F
$GPXTE,A,A,,R,N,D*06
$GPZDA,100013,,,,00,*4B
$IIDBT,042.19,f,012.86,M,006.95,F*28
$GPGLL,6004.726,N,02331.921,E,100013,A,D*49
$GPGSV,,,,,,,,,,,,,,,,,,,*79
$IIHDM,,M*0C
$IIHDT,,T*0C
$IIMWD,,,,,08.88,N,04.57,M*53
$IIVDR,,,,,,N*0E
$IIVHW,,T,,M,06.07,N,11.24,K*52
$IIVPW,5.75,N,,*06
$IIVTG,206.89,T,206.89,M,5.80,N,,,D*69
$IIMWV,343,T,09.17,N,A*2E
$IIVWT,017,L,09.17,N,04.72,M,,*22
$IIHDT,,T*0C
$GPWCV,,N,,D*5F
$GPXTE,A,A,,R,N,D*06
$GPZDA,100015,,,,00,*4D
$IIDBT,042.22,f,012.87,M,006.95,F*21
$GPGLL,6004.723,N,02331.918,E,100015,A,D*40
$GPGSV,,,,,,,,,,,,,,,,,,,*79
$IIHDM,,M*0C
$IIHDT,,T*0C
$IIMWD,,,,,08.82,N,04.54,M*5A
$IIVDR,,,,,,N*0E
$IIVHW,,T,,M,06.08,N,11.26,K*5F
$IIVPW,5.81,N,,*0D
$IIVTG,207.70,T,207.70,M,5.77,N,,,D*61
$IIMWV,350,R,14.77,N,A*20
$IIVWT,018,L,08.78,N,04.52,M,,*27
$IIHDT,,T*0C
$GPWCV,,N,,D*5F
$GPXTE,A,A,,R,N,D*06
$GPZDA,100017,,,,00,*4F
$IIDBT,042.25,f,012.88,M,006.96,F*2A
$GPGLL,6004.720,N,02331.915,E,100017,A,D*4C
$GPGSV,,,,,,,,,,,,,,,,,,,*79
$IIHDM,,M*0C
$IIHDT,,T*0C
$IIMWD,,,,,08.88,N,04.57,M*53
$IIVDR,,,,,,N*0E
$IIVHW,,T,,M,06.08,N,11.26,K*5F
$IIVPW,5.72,N,,*01
$IIVTG,206.80,T,206.80,M,5.72,N,,,D*64
$IIMWV,341,T,08.86,N,A*25
$IIVWT,019,L,08.86,N,04.56,M,,*23
$IIHDT,,T*0C
$GPWCV,,N,,D*5F
$GPXTE,A,A,,R,N,D*06
$GPZDA,100019,,,,00,*41
$IIDBT,042.28,f,012.89,M,006.96,F*26
$GPGLL,6004.717,N,02331.913,E,100019,A,D*40
$GPGSV,,,,,,,,,,,,,,,,,,,*79
$IIHDM,,M*0C
$IIHDT,,T*0C
$IIMWD,,,,,08.90,N,04.58,M*55
$IIVDR,,,,,,N*0E
$IIVHW,,T,,M,06.07,N,11.24,K*52
$IIVPW,5.69,N,,*0B
$IIVTG,204.30,T,204.30,M,5.70,N,,,D*66
$IIMWV,348,R,14.77,N,A*29
$IIVWT,019,L,08.96,N,04.61,M,,*26
$IIHDT,,T*0C
$GPWCV,,N,,D*5F
$GPXTE,A,A,,R,N,D*06
$GPZDA,100021,,,,00,*4A
$IIDBT,042.35,f,012.91,M,006.97,F*22
$GPGLL,6004.715,N,02331.910,E,100021,A,D*4A
$GPGSV,,,,,,,,,,,,,,,,,,,*79
$IIHDM,,M*0C
$IIHDT,,T*0C
$IIMWD,,,,,08.96,N,04.61,M*59
$IIVDR,,,,,,N*0E
$IIVHW,,T,,M,06.06,N,11.22,K*55
$IIVPW,5.60,N,,*02
$IIVTG,204.37,T,204.37,M,5.70,N,,,D*66
$IIMWV,338,T,08.92,N,A*2E
$IIVWT,022,L,08.92,N,04.59,M,,*21
$IIHDT,,T*0C
$GPWCV,,N,,D*5F
$GPXTE,A,A,,R,N,D*06
$GPZDA,100023,,,,00,*48
$IIDBT,042.35,f,012.91,M,006.97,F*22
$GPGLL,6004.712,N,02331.908,E,100023,A,D*46
$GPGSV,,,,,,,,,,,,,,,,,,,*79
$IIHDM,,M*0C
$IIHDT,,T*0C
$IIMWD,,,,,09.01,N,04.64,M*53
$IIVDR,,,,,,N*0E
$IIVHW,,T,,M,06.05,N,11.20,K*54
$IIVPW,5.66,N,,*04
$IIVTG,205.47,T,205.47,M,5.70,N,,,D*66
$IIMWV,348,R,14.77,N,A*29
$IIVWT,020,L,08.96,N,04.61,M,,*2C
$IIHDT,,T*0C
$GPWCV,,N,,D*5F
$GPXTE,A,A,,R,N,D*06
$GPZDA,100025,,,,00,*4E
$IIDBT,042.38,f,012.92,M,006.98,F*23
$GPGLL,6004.709,N,02331.905,E,100025,A,D*47
$GPGSV,,,,,,,,,,,,,,,,,,,*79
$IIHDM,,M*0C
$IIHDT,,T*0C
$IIMWD,,,,,08.53,N,04.39,M*5D
$IIVDR,,,,,,N*0E
$IIVHW,,T,,M,06.04,N,11.18,K*5E
$IIVPW,5.62,N,,*00
$IIVTG,207.16,T,207.16,M,5.70,N,,,D*66
$IIMWV,337,T,08.55,N,A*2A
$IIVWT,024,L,08.55,N,04.40,M,,*24
$IIHDT,,T*0C
$GPWCV,,N,,D*5F
$GPXTE,A,A,,R,N,D*06
$GPZDA,100027,,,,00,*4C
$IIDBT,042.42,f,012.93,M,006.98,F*2F
$GPGLL,6004.706,N,02331.902,E,100027,A,D*4D
$GPGSV,,,,,,,,,,,,,,,,,,,*79
$IIHDM,,M*0C
$IIHDT,,T*0C
$IIMWD,,,,,08.74,N,04.50,M*57
$IIVDR,,,,,,N*0E
$IIVHW,,T,,M,06.04,N,11.18,K*5E
$IIVPW,5.39,N,,*0E
$IIVTG,207.74,T,207.74,M,5.70,N,,,D*66
$IIMWV,346,R,14.38,N,A*2C
$IIVWT,023,L,08.65,N,04.45,M,,*25
$IIHDT,,T*0C
$GPWCV,,N,,D*5F
$GPXTE,A,A,,R,N,D*06
$GPZDA,100029,,,,00,*42
$IIDBT,042.48,f,012.95,M,006.99,F*22
$GPGLL,6004.703,N,02331.899,E,100029,A,D*45
$GPGSV,,,,,,,,,,,,,,,,,,,*79
$IIHDM,,M*0C
$IIHDT,,T*0C
$IIMWD,,,,,08.57,N,04.41,M*56
$IIVDR,,,,,,N*0E
$IIVHW,,T,,M,06.02,N,11.14,K*54
$IIVPW,5.59,N,,*08
$IIVTG,207.69,T,207.69,M,5.70,N,,,D*66
$IIMWV,338,T,09.01,N,A*25
$IIVWT,023,L,09.01,N,04.64,M,,*25
$IIHDT,,T*0C
$GPWCV,,N,,D*5F
$GPXTE,A,A,,R,N,D*06
$GPZDA,100031,,,,00,*4B
$IIDBT,042.51,f,012.96,M,007.00,F*28
$GPGLL,6004.701,N,02331.896,E,100031,A,D*41
$GPGSV,,,,,,,,,,,,,,,,,,,*79
$IIHDM,,M*0C
$IIHDT,,T*0C
$IIMWD,,,,,08.92,N,04.59,M*56
$IIVDR,,,,,,N*0E
$IIVHW,,T,,M,06.02,N,11.14,K*54
$IIVPW,5.63,N,,*01
$IIVTG,208.82,T,208.82,M,5.70,N,,,D*66
$IIMWV,347,R,14.77,N,A*26
$IIVWT,022,L,09.03,N,04.65,M,,*27
$IIHDT,,T*0C
$GPWCV,,N,,D*5F
$GPXTE,A,A,,R,N,D*06
$GPZDA,100033,,,,00,*49
$IIDBT,042.55,f,012.97,M,007.01,F*2C
$GPGLL,6004.698,N,02331.893,E,100033,A,D*47
$GPGSV,,,,,,,,,,,,,,,,,,,*79
$IIHDM,,M*0C
$IIHDT,,T*0C
$IIMWD,,,,,09.03,N,04.65,M*50
$IIVDR,,,,,,N*0E
$IIVHW,,T,,M,06.02,N,11.14,K*54
$IIVPW,5.54,N,,*05
$IIVTG,209.26,T,209.26,M,5.70,N,,,D*66
$IIMWV,338,T,08.94,N,A*28
$IIVWT,022,L,08.94,N,04.60,M,,*2D
$IIHDT,,T*0C
$GPWCV,,N,,D*5F
$GPXTE,A,A,,R,N,D*06
$GPZDA,100035,,,,00,*4F
$IIDBT,042.61,f,012.99,M,007.02,F*26
$GPGLL,6004.695,N,02331.890,E,100035,A,D*4F
$GPGSV,,,,,,,,,,,,,,,,,,,*79
$IIHDM,,M*0C
$IIHDT,,T*0C
$IIMWD,,,,,08.57,N,04.41,M*56
$IIVDR,,,,,,N*0E
$IIVHW,,T,,M,06.03,N,11.16,K*57
$IIVPW,5.49,N,,*09
$IIVTG,208.94,T,208.94,M,5.73,N,,,D*65
$IIMWV,345,R,14.38,N,A*2F
$IIVWT,026,L,08.78,N,04.52,M,,*2A
$IIHDT,,T*0C
$GPWCV,,N,,D*5F
$GPXTE,A,A,,R,N,D*06
$GPZDA,100037,,,,00,*4D
$IIDBT,042.58,f,012.98,M,007.01,F*2E
$GPGLL,6004.692,N,02331.887,E,100037,A,D*4C
$GPGSV,,,,,,,,,,,,,,,,,,,*79
$IIHDM,,M*0C
$IIHDT,,T*0C
$IIMWD,,,,,08.66,N,04.46,M*53
$IIVDR,,,,,,N*0E
$IIVHW,,T,,M,06.00,N,11.11,K*53
$IIVPW,5.37,N,,*00
$IIVTG,208.41,T,208.41,M,5.71,N,,,D*67
$IIMWV,334,T,08.65,N,A*2A
$IIVWT,026,L,08.65,N,04.45,M,,*20
$IIHDT,,T*0C
$GPWCV,,N,,D*5F
$GPXTE,A,A,,R,N,D*06
$GPZDA,100039,,,,00,*43
$IIDBT,042.64,f,013.00,M,007.02,F*22
$GPGLL,6004.689,N,02331.883,E,100039,A,D*4C
$GPGSV,,,,,,,,,,,,,,,,,,,*79
$IIHDM,,M*0C
$IIHDT,,T*0C
$IIMWD,,,,,09.17,N,04.72,M*53
$IIVDR,,,,,,N*0E
$IIVHW,,T,,M,06.01,N,11.13,K*50
$IIVPW,5.34,N,,*03
$IIVTG,208.77,T,208.77,M,5.70,N,,,D*66
$IIMWV,345,R,14.38,N,A*2F
$IIVWT,026,L,08.61,N,04.43,M,,*22
$IIHDT,,T*0C
$GPWCV,,N,,D*5F
$GPXTE,A,A,,R,N,D*06
$GPZDA,100041,,,,00,*4C
$IIDBT,042.68,f,013.01,M,007.03,F*2E
$GPGLL,6004.685,N,02331.879,E,100041,A,D*4A
$GPGSV,,,,,,,,,,,,,,,,,,,*79
$IIHDM,,M*0C
$IIHDT,,T*0C
$IIMWD,,,,,08.59,N,04.42,M*5B
$IIVDR,,,,,,N*0E
$IIVHW,,T,,M,06.03,N,11.16,K*57
$IIVPW,5.59,N,,*08
$IIVTG,209.64,T,209.64,M,5.70,N,,,D*66
$IIMWV,336,T,09.05,N,A*2F
$IIVWT,024,L,09.05,N,04.66,M,,*24
$IIHDT,,T*0C
$GPWCV,,N,,D*5F
$GPXTE,A,A,,R,N,D*06
$GPZDA,100043,,,,00,*4E
$IIDBT,042.74,f,013.03,M,007.04,F*26
$GPGLL,6004.683,N,02331.876,E,100044,A,D*46
$GPGSV,,,,,,,,,,,,,,,,,,,*79
$IIHDM,,M*0C
$IIHDT,,T*0C
$IIMWD,,,,,09.05,N,04.66,M*55
$IIVDR,,,,,,N*0E
$IIVHW,,T,,M,06.04,N,11.18,K*5E
$IIVPW,5.44,N,,*04
$IIVTG,209.37,T,209.37,M,5.70,N,,,D*66
$IIMWV,345,R,14.77,N,A*24
$IIVWT,025,L,09.01,N,04.64,M,,*23
$IIHDT,,T*0C
$GPWCV,,N,,D*5F
$GPXTE,A,A,,R,N,D*06
$GPZDA,100045,,,,00,*48
$IIDBT,042.74,f,013.03,M,007.04,F*26
$GPGLL,6004.680,N,02331.873,E,100046,A,D*42
$GPGSV,,,,,,,,,,,,,,,,,,,*79
$IIHDM,,M*0C
$IIHDT,,T*0C
$IIMWD,,,,,09.05,N,04.66,M*55
$IIVDR,,,,,,N*0E
$IIVHW,,T,,M,06.04,N,11.18,K*5E
$IIVPW,5.47,N,,*07
$IIVTG,208.42,T,208.42,M,5.70,N,,,D*66
$IIMWV,335,T,09.23,N,A*28
$IIVWT,025,L,09.23,N,04.75,M,,*23
$IIHDT,,T*0C
$GPWCV,,N,,D*5F
$GPXTE,A,A,,R,N,D*06
$GPZDA,100047,,,,00,*4A
$IIDBT,042.78,f,013.04,M,007.04,F*2D
$GPGLL,6004.677,N,02331.870,E,100048,A,D*47
$GPGSV,,,,,,,,,,,,,,,,,,,*79
