$GPGGA,085411.000,5222.3215,N,00454.5778,E,1,4,2.95,16.0,M,47.0,M,,*61
$GPGSA,A,3,16,23,13,29,,,,,,,,,3.11,2.95,0.99*00
$GPRMC,085411.000,A,5222.3215,N,00454.5778,E,0.58,251.34,030414,,,A*63
$GPVTG,251.34,T,,M,0.58,N,1.07,K,A*37
$GPGGA,085412.000,5222.3198,N,00454.5784,E,1,4,2.95,16.0,M,47.0,M,,*67
$GPGSA,A,3,16,23,13,29,,,,,,,,,3.11,2.95,0.99*00
$GPRMC,085412.000,A,5222.3198,N,00454.5784,E,0.58,251.34,030414,,,A*65
$GPVTG,251.34,T,,M,0.58,N,1.07,K,A*37
$GPGGA,085413.000,5222.3184,N,00454.5786,E,1,4,2.95,16.0,M,47.0,M,,*69
$GPGSA,A,3,16,23,13,29,,,,,,,,,3.11,2.95,0.99*00
$GPRMC,085413.000,A,5222.3184,N,00454.5786,E,0.52,251.34,030414,,,A*61
$GPVTG,251.34,T,,M,0.52,N,0.97,K,A*35
$GPGGA,085414.000,5222.3185,N,00454.5786,E,1,4,2.95,16.0,M,47.0,M,,*6F
$GPGSA,A,3,16,23,13,29,,,,,,,,,3.11,2.95,0.99*00
$GPRMC,085414.000,A,5222.3185,N,00454.5786,E,0.48,251.34,030414,,,A*6C
$GPVTG,251.34,T,,M,0.48,N,0.88,K,A*30
$GPGGA,085415.000,5222.3180,N,00454.5796,E,1,4,2.95,16.0,M,47.0,M,,*6A
$GPGSA,A,3,16,23,13,29,,,,,,,,,3.11,2.95,0.99*00
$GPGSV,3,1,12,13,73,068,33,10,69,286,21,04,47,217,,02,42,290,*7D
$GPGSV,3,2,12,07,42,165,,23,38,069,41,08,17,181,,16,15,067,36*79
$GPGSV,3,3,12,05,11,295,,09,11,192,,29,07,343,28,20,07,120,*76
$GPRMC,085415.000,A,5222.3180,N,00454.5796,E,0.30,251.34,030414,,,A*66
$GPVTG,251.34,T,,M,0.30,N,0.56,K,A*3C
$GPGGA,085416.000,5222.3179,N,00454.5802,E,1,4,2.95,15.9,M,47.0,M,,*67
$GPGSA,A,3,16,23,13,29,,,,,,,,,3.11,2.95,0.99*00
$GPRMC,085416.000,A,5222.3179,N,00454.5802,E,0.35,251.34,030414,,,A*64
$GPVTG,251.34,T,,M,0.35,N,0.65,K,A*39
$GPGGA,085417.000,5222.3176,N,00454.5802,E,1,4,2.95,15.9,M,47.0,M,,*69
$GPGSA,A,3,16,23,13,29,,,,,,,,,3.11,2.95,0.99*00
$GPRMC,085417.000,A,5222.3176,N,00454.5802,E,0.29,251.34,030414,,,A*67
$GPVTG,251.34,T,,M,0.29,N,0.53,K,A*31
$GPGGA,085418.000,5222.3176,N,00454.5802,E,1,4,2.95,15.9,M,47.0,M,,*66
$GPGSA,A,3,16,23,13,29,,,,,,,,,3.11,2.95,0.99*00
$GPRMC,085418.000,A,5222.3176,N,00454.5802,E,0.32,251.34,030414,,,A*62
$GPVTG,251.34,T,,M,0.32,N,0.59,K,A*31
$GPGGA,085419.000,5222.3176,N,00454.5803,E,1,5,2.03,15.9,M,47.0,M,,*68
$GPGSA,A,3,16,05,23,13,29,,,,,,,,2.23,2.03,0.92*01
$GPRMC,085419.000,A,5222.3176,N,00454.5803,E,0.30,251.34,030414,,,A*60
$GPVTG,251.34,T,,M,0.30,N,0.56,K,A*3C
$GPGGA,085420.000,5222.3180,N,00454.5804,E,1,5,2.03,15.9,M,47.0,M,,*6C
$GPGSA,A,3,16,05,23,13,29,,,,,,,,2.23,2.03,0.92*01
$GPGSV,4,1,13,13,73,068,35,10,69,286,20,04,47,217,,02,42,290,*7C
$GPGSV,4,2,13,07,42,165,,23,37,069,41,37,28,159,,08,17,181,*74
$GPGSV,4,3,13,16,15,067,36,05,11,295,19,09,11,192,,29,07,343,23*72
$GPGSV,4,4,13,20,07,120,*4D
$GPRMC,085420.000,A,5222.3180,N,00454.5804,E,0.35,251.34,030414,,,A*61
$GPVTG,251.34,T,,M,0.35,N,0.65,K,A*39
$GPGGA,085421.000,5222.3183,N,00454.5806,E,1,5,2.03,15.9,M,47.0,M,,*6C
$GPGSA,A,3,16,05,23,13,29,,,,,,,,2.23,2.03,0.92*01
$GPRMC,085421.000,A,5222.3183,N,00454.5806,E,0.31,251.34,030414,,,A*65
$GPVTG,251.34,T,,M,0.31,N,0.58,K,A*33
$GPGGA,085422.000,5222.3186,N,00454.5807,E,1,5,2.03,15.9,M,47.0,M,,*6B
$GPGSA,A,3,16,05,23,13,29,,,,,,,,2.23,2.03,0.92*01
$GPRMC,085422.000,A,5222.3186,N,00454.5807,E,0.29,251.34,030414,,,A*6B
$GPVTG,251.34,T,,M,0.29,N,0.54,K,A*36
$GPGGA,085423.000,5222.3191,N,00454.5807,E,1,5,2.03,15.9,M,47.0,M,,*6C
$GPGSA,A,3,16,05,23,13,29,,,,,,,,2.23,2.03,0.92*01
$GPRMC,085423.000,A,5222.3191,N,00454.5807,E,0.32,251.34,030414,,,A*66
$GPVTG,251.34,T,,M,0.32,N,0.60,K,A*3B
$GPGGA,085424.000,5222.3196,N,00454.5808,E,1,5,2.03,15.9,M,47.0,M,,*63
$GPGSA,A,3,16,05,23,13,29,,,,,,,,2.23,2.03,0.92*01
$GPRMC,085424.000,A,5222.3196,N,00454.5808,E,0.46,251.34,030414,,,A*6A
$GPVTG,251.34,T,,M,0.46,N,0.86,K,A*30
$GPGGA,085425.000,5222.3199,N,00454.5809,E,1,5,2.03,15.9,M,47.0,M,,*6C
$GPGSA,A,3,16,05,23,13,29,,,,,,,,2.23,2.03,0.92*01
$GPGSV,4,1,13,13,73,068,35,10,69,286,19,04,47,217,,02,42,290,*76
$GPGSV,4,2,13,07,42,165,,23,37,069,41,37,28,159,,08,17,181,*74
$GPGSV,4,3,13,16,15,067,36,05,11,295,19,09,11,192,,29,07,343,23*72
$GPGSV,4,4,13,20,07,120,*4D
$GPRMC,085425.000,A,5222.3199,N,00454.5809,E,0.49,251.34,030414,,,A*6A
$GPVTG,251.34,T,,M,0.49,N,0.91,K,A*39
$GPGGA,085426.000,5222.3201,N,00454.5813,E,1,6,1.88,15.9,M,47.0,M,,*65
$GPGSA,A,3,02,16,05,23,13,29,,,,,,,2.09,1.88,0.92*0B
$GPRMC,085426.000,A,5222.3201,N,00454.5813,E,0.38,251.34,030414,,,A*66
$GPVTG,251.34,T,,M,0.38,N,0.71,K,A*31
$GPGGA,085427.000,5222.3203,N,00454.5815,E,1,6,1.88,15.9,M,47.0,M,,*60
$GPGSA,A,3,02,16,05,23,13,29,,,,,,,2.09,1.88,0.92*0B
$GPRMC,085427.000,A,5222.3203,N,00454.5815,E,0.34,251.34,030414,,,A*6F
$GPVTG,251.34,T,,M,0.34,N,0.63,K,A*3E
$GPGGA,085428.000,5222.3205,N,00454.5817,E,1,6,1.88,15.9,M,47.0,M,,*6B
$GPGSA,A,3,02,16,05,23,13,29,,,,,,,2.09,1.88,0.92*0B
$GPRMC,085428.000,A,5222.3205,N,00454.5817,E,0.29,251.34,030414,,,A*68
$GPVTG,251.34,T,,M,0.29,N,0.54,K,A*36
$GPGGA,085429.000,5222.3209,N,00454.5819,E,1,6,1.88,15.9,M,47.0,M,,*68
$GPGSA,A,3,02,16,05,23,13,29,,,,,,,2.09,1.88,0.92*0B
$GPRMC,085429.000,A,5222.3209,N,00454.5819,E,0.34,251.34,030414,,,A*67
$GPVTG,251.34,T,,M,0.34,N,0.63,K,A*3E
$GPGGA,085430.000,5222.3214,N,00454.5823,E,1,6,1.88,15.9,M,47.0,M,,*65
$GPGSA,A,3,02,16,05,23,13,29,,,,,,,2.09,1.88,0.92*0B
$GPGSV,4,1,13,13,73,068,36,10,69,286,21,04,47,217,,02,42,290,19*76
$GPGSV,4,2,13,07,42,165,,23,37,069,41,39,27,154,,08,17,181,*78
$GPGSV,4,3,13,16,15,067,36,05,11,295,20,09,11,192,,29,07,343,24*7F
$GPGSV,4,4,13,20,07,120,*4D
$GPRMC,085430.000,A,5222.3214,N,00454.5823,E,0.38,251.34,030414,,,A*66
$GPVTG,251.34,T,,M,0.38,N,0.71,K,A*31
$GPGGA,085431.000,5222.3216,N,00454.5825,E,1,6,1.88,15.9,M,47.0,M,,*60
$GPGSA,A,3,02,16,05,23,13,29,,,,,,,2.09,1.88,0.92*0B
$GPRMC,085431.000,A,5222.3216,N,00454.5825,E,0.34,251.34,030414,,,A*6F
$GPVTG,251.34,T,,M,0.34,N,0.63,K,A*3E
$GPGGA,085432.000,5222.3215,N,00454.5827,E,1,6,1.88,15.9,M,47.0,M,,*62
$GPGSA,A,3,02,16,05,23,13,29,,,,,,,2.09,1.88,0.92*0B
$GPRMC,085432.000,A,5222.3215,N,00454.5827,E,0.16,251.34,030414,,,A*6D
$GPVTG,251.34,T,,M,0.16,N,0.30,K,A*38
$GPGGA,085433.000,5222.3219,N,00454.5827,E,1,6,1.88,15.9,M,47.0,M,,*6F
$GPGSA,A,3,02,16,05,23,13,29,,,,,,,2.09,1.88,0.92*0B
$GPRMC,085433.000,A,5222.3219,N,00454.5827,E,0.31,251.34,030414,,,A*65
$GPVTG,251.34,T,,M,0.31,N,0.58,K,A*33
$GPGGA,085434.000,5222.3220,N,00454.5825,E,1,6,1.88,15.9,M,47.0,M,,*60
$GPGSA,A,3,02,16,05,23,13,29,,,,,,,2.09,1.88,0.92*0B
$GPRMC,085434.000,A,5222.3220,N,00454.5825,E,0.38,251.34,030414,,,A*63
$GPVTG,251.34,T,,M,0.38,N,0.70,K,A*30
$GPGGA,085435.000,5222.3220,N,00454.5825,E,1,6,1.88,15.9,M,47.0,M,,*61
$GPGSA,A,3,02,16,05,23,13,29,,,,,,,2.09,1.88,0.92*0B
$GPGSV,4,1,13,13,73,068,36,10,69,286,22,04,47,217,,02,42,289,21*76
$GPGSV,4,2,13,07,42,165,,23,37,069,39,39,27,154,,08,17,181,*77
$GPGSV,4,3,13,16,15,067,36,05,12,295,22,09,11,192,,29,07,343,25*7F
$GPGSV,4,4,13,20,07,120,*4D
$GPRMC,085435.000,A,5222.3220,N,00454.5825,E,0.35,251.34,030414,,,A*6F
$GPVTG,251.34,T,,M,0.35,N,0.65,K,A*39
$GPGGA,085436.000,5222.3221,N,00454.5827,E,1,6,1.88,15.9,M,47.0,M,,*61
$GPGSA,A,3,02,16,05,23,13,29,,,,,,,2.09,1.88,0.92*0B
$GPRMC,085436.000,A,5222.3221,N,00454.5827,E,0.36,251.34,030414,,,A*6C
$GPVTG,251.34,T,,M,0.36,N,0.66,K,A*39
$GPGGA,085437.000,5222.3218,N,00454.5825,E,1,6,1.88,15.9,M,47.0,M,,*68
$GPGSA,A,3,02,16,05,23,13,29,,,,,,,2.09,1.88,0.92*0B
$GPRMC,085437.000,A,5222.3218,N,00454.5825,E,0.29,251.34,030414,,,A*6B
$GPVTG,251.34,T,,M,0.29,N,0.54,K,A*36
$GPGGA,085438.000,5222.3218,N,00454.5822,E,1,6,1.88,15.9,M,47.0,M,,*60
$GPGSA,A,3,02,16,05,23,13,29,,,,,,,2.09,1.88,0.92*0B
$GPRMC,085438.000,A,5222.3218,N,00454.5822,E,0.34,251.34,030414,,,A*6F
$GPVTG,251.34,T,,M,0.34,N,0.64,K,A*39
$GPGGA,085439.000,5222.3219,N,00454.5821,E,1,6,1.88,15.9,M,47.0,M,,*63
$GPGSA,A,3,02,16,05,23,13,29,,,,,,,2.09,1.88,0.92*0B
$GPRMC,085439.000,A,5222.3219,N,00454.5821,E,0.36,251.34,030414,,,A*6E
$GPVTG,251.34,T,,M,0.36,N,0.68,K,A*37
$GPGGA,085440.000,5222.3216,N,00454.5822,E,1,7,1.09,15.9,M,47.0,M,,*69
$GPGSA,A,3,02,16,05,23,13,29,07,,,,,,1.39,1.09,0.86*00
$GPGSV,4,1,13,13,73,068,35,10,69,286,19,04,47,217,,07,43,165,17*7D
$GPGSV,4,2,13,02,42,289,20,23,37,069,38,33,27,205,,08,17,181,*7D
$GPGSV,4,3,13,16,15,067,36,05,12,295,21,09,11,192,,29,07,343,25*7C
$GPGSV,4,4,13,20,07,120,*4D
$GPRMC,085440.000,A,5222.3216,N,00454.5822,E,0.20,251.34,030414,,,A*6B
$GPVTG,251.34,T,,M,0.20,N,0.37,K,A*3A
$GPGGA,085441.000,5222.3211,N,00454.5825,E,1,7,1.09,15.9,M,47.0,M,,*68
$GPGSA,A,3,02,16,05,23,13,29,07,,,,,,1.39,1.09,0.86*00
$GPRMC,085441.000,A,5222.3211,N,00454.5825,E,0.04,251.34,030414,,,A*6C
$GPVTG,251.34,T,,M,0.04,N,0.08,K,A*30
$GPGGA,085442.000,5222.3208,N,00454.5828,E,1,7,1.09,15.9,M,47.0,M,,*6E
$GPGSA,A,3,02,16,05,23,13,29,07,,,,,,1.39,1.09,0.86*00
$GPRMC,085442.000,A,5222.3208,N,00454.5828,E,0.04,251.34,030414,,,A*6A
$GPVTG,251.34,T,,M,0.04,N,0.07,K,A*3F
$GPGGA,085443.000,5222.3208,N,00454.5827,E,1,7,1.09,15.9,M,47.0,M,,*60
$GPGSA,A,3,02,16,05,23,13,29,07,,,,,,1.39,1.09,0.86*00
$GPRMC,085443.000,A,5222.3208,N,00454.5827,E,0.12,251.34,030414,,,A*63
$GPVTG,251.34,T,,M,0.12,N,0.22,K,A*3F
$GPGGA,085444.000,5222.3208,N,00454.5827,E,1,7,1.09,15.9,M,47.0,M,,*67
$GPGSA,A,3,02,16,05,23,13,29,07,,,,,,1.39,1.09,0.86*00
$GPRMC,085444.000,A,5222.3208,N,00454.5827,E,0.12,251.34,030414,,,A*64
$GPVTG,251.34,T,,M,0.12,N,0.22,K,A*3F
$GPGGA,085445.000,5222.3208,N,00454.5828,E,1,7,1.09,15.9,M,47.0,M,,*69
$GPGSA,A,3,02,16,05,23,13,29,07,,,,,,1.39,1.09,0.86*00
$GPGSV,4,1,13,13,73,067,35,10,69,286,19,04,47,217,,07,43,165,17*72
$GPGSV,4,2,13,02,42,289,22,23,37,069,38,33,27,205,,08,17,181,*7F
$GPGSV,4,3,13,16,15,067,36,05,12,295,21,09,11,192,,29,07,343,25*7C
$GPGSV,4,4,13,20,07,120,*4D
$GPRMC,085445.000,A,5222.3208,N,00454.5828,E,0.12,251.34,030414,,,A*6A
$GPVTG,251.34,T,,M,0.12,N,0.23,K,A*3E
$GPGGA,085446.000,5222.3208,N,00454.5828,E,1,7,1.09,15.9,M,47.0,M,,*6A
$GPGSA,A,3,02,16,05,23,13,29,07,,,,,,1.39,1.09,0.86*00
$GPRMC,085446.000,A,5222.3208,N,00454.5828,E,0.13,251.34,030414,,,A*68
$GPVTG,251.34,T,,M,0.13,N,0.24,K,A*38
$GPGGA,085447.000,5222.3208,N,00454.5828,E,1,7,1.09,15.9,M,47.0,M,,*6B
$GPGSA,A,3,02,16,05,23,13,29,07,,,,,,1.39,1.09,0.86*00
$GPRMC,085447.000,A,5222.3208,N,00454.5828,E,0.21,251.34,030414,,,A*68
$GPVTG,251.34,T,,M,0.21,N,0.40,K,A*3B
$GPGGA,085448.000,5222.3209,N,00454.5828,E,1,7,1.09,15.9,M,47.0,M,,*65
$GPGSA,A,3,02,16,05,23,13,29,07,,,,,,1.39,1.09,0.86*00
$GPRMC,085448.000,A,5222.3209,N,00454.5828,E,0.22,251.34,030414,,,A*65
$GPVTG,251.34,T,,M,0.22,N,0.41,K,A*39
$GPGGA,085449.000,5222.3210,N,00454.5828,E,1,7,1.09,15.9,M,47.0,M,,*6C
$GPGSA,A,3,02,16,05,23,13,29,07,,,,,,1.39,1.09,0.86*00
$GPRMC,085449.000,A,5222.3210,N,00454.5828,E,0.41,251.34,030414,,,A*69
$GPVTG,251.34,T,,M,0.41,N,0.77,K,A*39
$GPGGA,085450.000,5222.3211,N,00454.5827,E,1,7,1.09,15.9,M,47.0,M,,*6A
$GPGSA,A,3,02,16,05,23,13,29,07,,,,,,1.39,1.09,0.86*00
$GPGSV,4,1,13,13,73,067,35,10,69,286,18,04,47,217,,07,43,165,18*7C
$GPGSV,4,2,13,02,42,289,23,23,37,069,37,08,17,181,,16,15,066,37*74
$GPGSV,4,3,13,05,12,295,21,09,11,192,,40,09,115,,29,07,343,25*73
$GPGSV,4,4,13,20,07,120,*4D
$GPRMC,085450.000,A,5222.3211,N,00454.5827,E,0.29,251.34,030414,,,A*61
$GPVTG,251.34,T,,M,0.29,N,0.53,K,A*31
$GPGGA,085451.000,5222.3212,N,00454.5828,E,1,7,1.09,15.9,M,47.0,M,,*67
$GPGSA,A,3,02,16,05,23,13,29,07,,,,,,1.39,1.09,0.86*00
$GPRMC,085451.000,A,5222.3212,N,00454.5828,E,0.25,251.34,030414,,,A*60
$GPVTG,251.34,T,,M,0.25,N,0.47,K,A*38
$GPGGA,085452.000,5222.3212,N,00454.5828,E,1,7,1.09,15.9,M,47.0,M,,*64
$GPGSA,A,3,02,16,05,23,13,29,07,,,,,,1.39,1.09,0.86*00
$GPRMC,085452.000,A,5222.3212,N,00454.5828,E,0.29,251.34,030414,,,A*6F
$GPVTG,251.34,T,,M,0.29,N,0.55,K,A*37
$GPGGA,085453.000,5222.3213,N,00454.5829,E,1,7,1.09,15.9,M,47.0,M,,*65
$GPGSA,A,3,02,16,05,23,13,29,07,,,,,,1.39,1.09,0.86*00
$GPRMC,085453.000,A,5222.3213,N,00454.5829,E,0.18,251.34,030414,,,A*6C
$GPVTG,251.34,T,,M,0.18,N,0.33,K,A*35
$GPGGA,085454.000,5222.3213,N,00454.5829,E,1,7,1.09,15.9,M,47.0,M,,*62
$GPGSA,A,3,02,16,05,23,13,29,07,,,,,,1.39,1.09,0.86*00
$GPRMC,085454.000,A,5222.3213,N,00454.5829,E,0.21,251.34,030414,,,A*61
$GPVTG,251.34,T,,M,0.21,N,0.38,K,A*34
$GPGGA,085455.000,5222.3214,N,00454.5830,E,1,7,1.09,15.9,M,47.0,M,,*6C
$GPGSA,A,3,02,16,05,23,13,29,07,,,,,,1.39,1.09,0.86*00
$GPGSV,4,1,13,13,73,067,36,10,69,286,18,04,47,217,,07,43,165,19*7E
$GPGSV,4,2,13,02,42,289,23,23,37,069,37,08,17,181,,16,15,066,37*74
$GPGSV,4,3,13,05,12,295,21,09,11,192,,40,09,115,,29,07,343,21*77
$GPGSV,4,4,13,20,07,120,*4D
$GPRMC,085455.000,A,5222.3214,N,00454.5830,E,0.27,251.34,030414,,,A*69
$GPVTG,251.34,T,,M,0.27,N,0.50,K,A*3C
$GPGGA,085456.000,5222.3215,N,00454.5830,E,1,7,1.09,15.9,M,47.0,M,,*6E
$GPGSA,A,3,02,16,05,23,13,29,07,,,,,,1.39,1.09,0.86*00
$GPRMC,085456.000,A,5222.3215,N,00454.5830,E,0.25,251.34,030414,,,A*69
$GPVTG,251.34,T,,M,0.25,N,0.47,K,A*38
$GPGGA,085457.000,5222.3215,N,00454.5831,E,1,7,1.09,15.9,M,47.0,M,,*6E
$GPGSA,A,3,02,16,05,23,13,29,07,,,,,,1.39,1.09,0.86*00
$GPRMC,085457.000,A,5222.3215,N,00454.5831,E,0.19,251.34,030414,,,A*66
$GPVTG,251.34,T,,M,0.19,N,0.35,K,A*32
$GPGGA,085458.000,5222.3216,N,00454.5832,E,1,7,1.09,15.9,M,47.0,M,,*61
$GPGSA,A,3,02,16,05,23,13,29,07,,,,,,1.39,1.09,0.86*00
$GPRMC,085458.000,A,5222.3216,N,00454.5832,E,0.26,251.34,030414,,,A*65
$GPVTG,251.34,T,,M,0.26,N,0.48,K,A*34
$GPGGA,085459.000,5222.3217,N,00454.5832,E,1,7,1.09,15.9,M,47.0,M,,*61
$GPGSA,A,3,02,16,05,23,13,29,07,,,,,,1.39,1.09,0.86*00
$GPRMC,085459.000,A,5222.3217,N,00454.5832,E,0.32,251.34,030414,,,A*60
$GPVTG,251.34,T,,M,0.32,N,0.59,K,A*31
$GPGGA,085500.000,5222.3217,N,00454.5831,E,1,7,1.09,15.9,M,47.0,M,,*6F
$GPGSA,A,3,02,16,05,23,13,29,07,,,,,,1.39,1.09,0.86*00
$GPGSV,4,1,13,13,73,067,36,10,69,286,18,04,47,217,,07,43,165,18*7F
$GPGSV,4,2,13,02,42,289,24,23,37,069,37,08,17,181,,16,15,066,34*70
$GPGSV,4,3,13,05,12,295,22,09,11,192,,44,08,114,,29,07,343,18*7A
$GPGSV,4,4,13,20,07,120,*4D
$GPRMC,085500.000,A,5222.3217,N,00454.5831,E,0.35,251.34,030414,,,A*69
$GPVTG,251.34,T,,M,0.35,N,0.65,K,A*39
$GPGGA,085501.000,5222.3218,N,00454.5831,E,1,7,1.09,15.9,M,47.0,M,,*61
$GPGSA,A,3,02,16,05,23,13,29,07,,,,,,1.39,1.09,0.86*00
$GPRMC,085501.000,A,5222.3218,N,00454.5831,E,0.45,251.34,030414,,,A*60
$GPVTG,251.34,T,,M,0.45,N,0.84,K,A*31
$GPGGA,085502.000,5222.3220,N,00454.5830,E,1,7,1.09,15.9,M,47.0,M,,*68
$GPGSA,A,3,02,16,05,23,13,29,07,,,,,,1.39,1.09,0.86*00
$GPRMC,085502.000,A,5222.3220,N,00454.5830,E,0.40,251.34,030414,,,A*6C
$GPVTG,251.34,T,,M,0.40,N,0.74,K,A*3B
$GPGGA,085503.000,5222.3221,N,00454.5830,E,1,7,1.09,15.9,M,47.0,M,,*68
$GPGSA,A,3,02,16,05,23,13,29,07,,,,,,1.39,1.09,0.86*00
$GPRMC,085503.000,A,5222.3221,N,00454.5830,E,0.57,251.34,030414,,,A*6A
$GPVTG,251.34,T,,M,0.57,N,1.06,K,A*39
$GPGGA,085504.000,5222.3222,N,00454.5829,E,1,6,1.18,15.9,M,47.0,M,,*65
$GPGSA,A,3,02,16,23,13,29,07,,,,,,,1.47,1.18,0.89*03
$GPRMC,085504.000,A,5222.3222,N,00454.5829,E,0.59,357.11,030414,,,A*68
$GPVTG,357.11,T,,M,0.59,N,1.10,K,A*30
$GPGGA,085505.000,5222.3225,N,00454.5830,E,1,6,1.34,15.9,M,47.0,M,,*65
$GPGSA,A,3,02,16,23,13,29,07,,,,,,,2.34,1.34,1.91*02
$GPGSV,4,1,13,13,73,067,36,10,69,286,18,04,47,217,,07,43,165,18*7F
$GPGSV,4,2,13,02,42,289,23,23,37,069,37,08,17,181,,16,15,066,33*70
$GPGSV,4,3,13,05,12,295,,09,11,192,,44,08,114,,29,07,343,18*7A
$GPGSV,4,4,13,20,07,120,*4D
$GPRMC,085505.000,A,5222.3225,N,00454.5830,E,0.60,355.29,030414,,,A*65
$GPVTG,355.29,T,,M,0.60,N,1.11,K,A*32
$GPGGA,085506.000,5222.3230,N,00454.5831,E,1,6,1.34,15.9,M,47.0,M,,*63
$GPGSA,A,3,02,16,23,13,29,07,,,,,,,2.34,1.34,1.91*02
$GPRMC,085506.000,A,5222.3230,N,00454.5831,E,0.63,356.58,030414,,,A*65
$GPVTG,356.58,T,,M,0.63,N,1.16,K,A*33
$GPGGA,085507.000,5222.3234,N,00454.5832,E,1,6,1.34,15.9,M,47.0,M,,*65
$GPGSA,A,3,02,16,23,13,29,07,,,,,,,2.34,1.34,1.91*02
$GPRMC,085507.000,A,5222.3234,N,00454.5832,E,0.67,2.21,030414,,,A*6B
$GPVTG,2.21,T,,M,0.67,N,1.23,K,A*3D
$GPGGA,085508.000,5222.3239,N,00454.5833,E,1,6,1.34,15.9,M,47.0,M,,*66
$GPGSA,A,3,02,16,23,13,29,07,,,,,,,2.34,1.34,1.91*02
$GPRMC,085508.000,A,5222.3239,N,00454.5833,E,0.70,356.05,030414,,,A*6A
$GPVTG,356.05,T,,M,0.70,N,1.30,K,A*3D
$GPGGA,085509.000,5222.3245,N,00454.5836,E,1,6,1.34,15.8,M,47.0,M,,*68
$GPGSA,A,3,02,16,23,13,29,07,,,,,,,2.34,1.34,1.92*01
$GPRMC,085509.000,A,5222.3245,N,00454.5836,E,0.76,1.48,030414,,,A*6B
$GPVTG,1.48,T,,M,0.76,N,1.41,K,A*35
$GPGGA,085510.000,5222.3250,N,00454.5837,E,1,6,1.34,15.8,M,47.0,M,,*65
$GPGSA,A,3,02,16,23,13,29,07,,,,,,,2.34,1.34,1.92*01
$GPGSV,4,1,13,13,73,067,36,10,69,286,16,04,47,217,,07,43,165,19*70
$GPGSV,4,2,13,02,42,289,22,23,37,069,38,37,28,159,,08,17,181,*7E
$GPGSV,4,3,13,16,15,066,34,05,12,295,,09,11,192,,29,07,343,17*7D
$GPGSV,4,4,13,20,07,120,*4D
$GPRMC,085510.000,A,5222.3250,N,00454.5837,E,0.80,359.19,030414,,,A*65
$GPVTG,359.19,T,,M,0.80,N,1.49,K,A*3E
$GPGGA,085511.000,5222.3253,N,00454.5837,E,1,6,1.34,15.8,M,47.0,M,,*67
$GPGSA,A,3,02,16,23,13,29,07,,,,,,,2.34,1.34,1.92*01
$GPRMC,085511.000,A,5222.3253,N,00454.5837,E,0.83,358.53,030414,,,A*6B
$GPVTG,358.53,T,,M,0.83,N,1.53,K,A*39
$GPGGA,085512.000,5222.3258,N,00454.5835,E,1,6,1.34,15.8,M,47.0,M,,*6D
$GPGSA,A,3,02,16,23,13,29,07,,,,,,,2.34,1.34,1.92*01
$GPRMC,085512.000,A,5222.3258,N,00454.5835,E,0.84,342.98,030414,,,A*6A
$GPVTG,342.98,T,,M,0.84,N,1.56,K,A*37
$GPGGA,085513.000,5222.3263,N,00454.5836,E,1,6,1.18,15.8,M,47.0,M,,*69
$GPGSA,A,3,02,16,23,13,29,07,,,,,,,1.47,1.18,0.89*03
$GPRMC,085513.000,A,5222.3263,N,00454.5836,E,0.85,343.14,030414,,,A*64
$GPVTG,343.14,T,,M,0.85,N,1.58,K,A*3D
$GPGGA,085514.000,5222.3266,N,00454.5836,E,1,6,1.18,15.8,M,47.0,M,,*6B
$GPGSA,A,3,02,16,23,13,29,07,,,,,,,1.47,1.18,0.89*03
$GPRMC,085514.000,A,5222.3266,N,00454.5836,E,0.84,341.61,030414,,,A*67
$GPVTG,341.61,T,,M,0.84,N,1.56,K,A*32
$GPGGA,085515.000,5222.3271,N,00454.5836,E,1,6,1.18,15.8,M,47.0,M,,*6C
$GPGSA,A,3,02,16,23,13,29,07,,,,,,,1.47,1.18,0.89*03
$GPGSV,4,1,13,13,73,067,36,10,70,286,16,04,47,217,,07,43,165,19*78
$GPGSV,4,2,13,02,42,289,21,23,37,069,38,37,28,159,,08,17,181,*7D
$GPGSV,4,3,13,16,15,066,32,05,12,295,,09,11,192,,29,07,343,17*7B
$GPGSV,4,4,13,20,07,120,*4D
$GPRMC,085515.000,A,5222.3271,N,00454.5836,E,0.84,341.19,030414,,,A*6F
$GPVTG,341.19,T,,M,0.84,N,1.56,K,A*3D
$GPGGA,085516.000,5222.3276,N,00454.5838,E,1,6,1.18,15.7,M,47.0,M,,*69
$GPGSA,A,3,02,16,23,13,29,07,,,,,,,1.47,1.18,0.89*03
$GPRMC,085516.000,A,5222.3276,N,00454.5838,E,0.85,344.20,030414,,,A*6B
$GPVTG,344.20,T,,M,0.85,N,1.57,K,A*32
$GPGGA,085517.000,5222.3282,N,00454.5838,E,1,6,1.34,15.7,M,47.0,M,,*6D
$GPGSA,A,3,02,16,23,13,29,07,,,,,,,2.34,1.34,1.92*01
$GPRMC,085517.000,A,5222.3282,N,00454.5838,E,0.86,338.74,030414,,,A*68
$GPVTG,338.74,T,,M,0.86,N,1.59,K,A*35
$GPGGA,085518.000,5222.3288,N,00454.5840,E,1,6,1.18,15.7,M,47.0,M,,*69
$GPGSA,A,3,02,16,23,13,29,07,,,,,,,1.47,1.18,0.89*03
$GPRMC,085518.000,A,5222.3288,N,00454.5840,E,0.87,340.08,030414,,,A*67
$GPVTG,340.08,T,,M,0.87,N,1.60,K,A*3A
$GPGGA,085519.000,5222.3296,N,00454.5844,E,1,6,1.18,15.7,M,47.0,M,,*63
$GPGSA,A,3,02,16,23,13,29,07,,,,,,,1.47,1.18,0.89*03
$GPRMC,085519.000,A,5222.3296,N,00454.5844,E,0.90,341.34,030414,,,A*65
$GPVTG,341.34,T,,M,0.90,N,1.67,K,A*35
$GPGGA,085520.000,5222.3301,N,00454.5845,E,1,6,1.34,15.7,M,47.0,M,,*69
$GPGSA,A,3,02,16,23,13,29,07,,,,,,,2.34,1.34,1.92*01
$GPGSV,4,1,13,13,73,067,36,10,70,286,16,04,47,217,,07,43,165,18*79
$GPGSV,4,2,13,02,42,289,21,23,37,069,38,39,27,154,,08,17,181,*71
$GPGSV,4,3,13,16,15,066,31,05,12,295,,09,11,192,,29,07,343,18*77
$GPGSV,4,4,13,20,07,120,*4D
$GPRMC,085520.000,A,5222.3301,N,00454.5845,E,0.94,353.23,030414,,,A*60
$GPVTG,353.23,T,,M,0.94,N,1.75,K,A*37
$GPGGA,085521.000,5222.3306,N,00454.5846,E,1,6,1.34,15.6,M,47.0,M,,*6D
$GPGSA,A,3,02,16,23,13,29,07,,,,,,,2.34,1.34,1.92*01
$GPRMC,085521.000,A,5222.3306,N,00454.5846,E,0.97,350.10,030414,,,A*65
$GPVTG,350.10,T,,M,0.97,N,1.80,K,A*3D
$GPGGA,085522.000,5222.3309,N,00454.5847,E,1,6,1.34,15.6,M,47.0,M,,*60
$GPGSA,A,3,02,16,23,13,29,07,,,,,,,2.34,1.34,1.92*01
$GPRMC,085522.000,A,5222.3309,N,00454.5847,E,0.98,350.77,030414,,,A*66
$GPVTG,350.77,T,,M,0.98,N,1.82,K,A*31
$GPGGA,085523.000,5222.3312,N,00454.5848,E,1,6,1.34,15.6,M,47.0,M,,*64
$GPGSA,A,3,02,16,23,13,29,07,,,,,,,2.34,1.34,1.92*01
$GPRMC,085523.000,A,5222.3312,N,00454.5848,E,0.97,348.79,030414,,,A*6A
$GPVTG,348.79,T,,M,0.97,N,1.80,K,A*3B
$GPGGA,085524.000,5222.3315,N,00454.5848,E,1,6,1.34,15.6,M,47.0,M,,*64
$GPGSA,A,3,02,16,23,13,29,07,,,,,,,2.34,1.34,1.92*01
$GPRMC,085524.000,A,5222.3315,N,00454.5848,E,0.95,346.36,030414,,,A*6D
$GPVTG,346.36,T,,M,0.95,N,1.76,K,A*35
$GPGGA,085525.000,5222.3319,N,00454.5846,E,1,6,1.34,15.6,M,47.0,M,,*67
$GPGSA,A,3,02,16,23,13,29,07,,,,,,,2.35,1.34,1.92*00
$GPGSV,4,1,13,13,73,067,36,10,70,286,17,04,47,217,,07,43,165,16*76
$GPGSV,4,2,13,02,42,289,22,23,37,069,38,39,27,154,,08,17,181,*72
$GPGSV,4,3,13,16,15,066,31,05,12,295,,09,11,192,,29,07,343,18*77
$GPGSV,4,4,13,20,07,120,*4D
$GPRMC,085525.000,A,5222.3319,N,00454.5846,E,0.94,343.87,030414,,,A*60
$GPVTG,343.87,T,,M,0.94,N,1.74,K,A*39
$GPGGA,085526.000,5222.3321,N,00454.5847,E,1,6,1.18,15.6,M,47.0,M,,*60
$GPGSA,A,3,02,16,23,13,29,07,,,,,,,1.47,1.18,0.89*03
$GPRMC,085526.000,A,5222.3321,N,00454.5847,E,0.92,343.92,030414,,,A*6B
$GPVTG,343.92,T,,M,0.92,N,1.70,K,A*3F
$GPGGA,085527.000,5222.3320,N,00454.5846,E,1,6,1.18,15.6,M,47.0,M,,*61
$GPGSA,A,3,02,16,23,13,29,07,,,,,,,1.47,1.18,0.89*03
$GPRMC,085527.000,A,5222.3320,N,00454.5846,E,0.88,340.80,030414,,,A*61
$GPVTG,340.80,T,,M,0.88,N,1.63,K,A*36
$GPGGA,085528.000,5222.3321,N,00454.5847,E,1,6,1.18,15.5,M,47.0,M,,*6D
$GPGSA,A,3,02,16,23,13,29,07,,,,,,,1.47,1.18,0.89*03
$GPRMC,085528.000,A,5222.3321,N,00454.5847,E,0.83,348.11,030414,,,A*65
$GPVTG,348.11,T,,M,0.83,N,1.54,K,A*39
$GPGGA,085529.000,5222.3322,N,00454.5847,E,1,6,1.35,15.5,M,47.0,M,,*60
$GPGSA,A,3,02,16,23,13,29,07,,,,,,,2.35,1.35,1.92*01
$GPRMC,085529.000,A,5222.3322,N,00454.5847,E,0.79,345.35,030414,,,A*69
$GPVTG,345.35,T,,M,0.79,N,1.46,K,A*34
$GPGGA,085530.000,5222.3322,N,00454.5847,E,1,6,1.18,15.5,M,47.0,M,,*67
$GPGSA,A,3,02,16,23,13,29,07,,,,,,,1.47,1.18,0.89*03
$GPGSV,4,1,13,13,73,067,35,10,70,286,18,04,47,217,,07,43,165,16*7A
$GPGSV,4,2,13,02,42,289,22,23,37,069,38,33,27,205,,08,17,181,*7F
$GPGSV,4,3,13,16,15,066,32,05,12,295,,09,11,192,,29,07,343,19*75
$GPGSV,4,4,13,20,07,120,*4D
$GPRMC,085530.000,A,5222.3322,N,00454.5847,E,0.73,345.40,030414,,,A*69
$GPVTG,345.40,T,,M,0.73,N,1.35,K,A*38
$GPGGA,085531.000,5222.3321,N,00454.5844,E,1,6,1.35,15.5,M,47.0,M,,*69
$GPGSA,A,3,02,16,23,13,29,07,,,,,,,2.35,1.35,1.92*01
$GPRMC,085531.000,A,5222.3321,N,00454.5844,E,0.68,331.74,030414,,,A*66
$GPVTG,331.74,T,,M,0.68,N,1.27,K,A*35
$GPGGA,085532.000,5222.3319,N,00454.5844,E,1,6,1.18,15.5,M,47.0,M,,*6E
$GPGSA,A,3,02,16,23,13,29,07,,,,,,,1.47,1.18,0.89*03
$GPRMC,085532.000,A,5222.3319,N,00454.5844,E,0.64,322.81,030414,,,A*6A
$GPVTG,322.81,T,,M,0.64,N,1.18,K,A*3D
$GPGGA,085533.000,5222.3319,N,00454.5845,E,1,6,1.18,15.5,M,47.0,M,,*6E
$GPGSA,A,3,02,16,23,13,29,07,,,,,,,1.47,1.18,0.89*03
$GPRMC,085533.000,A,5222.3319,N,00454.5845,E,0.59,322.81,030414,,,A*64
$GPVTG,322.81,T,,M,0.59,N,1.10,K,A*3B
$GPGGA,085534.000,5222.3314,N,00454.5846,E,1,7,1.09,15.5,M,47.0,M,,*66
$GPGSA,A,3,02,16,05,23,13,29,07,,,,,,1.40,1.09,0.87*0F
$GPRMC,085534.000,A,5222.3314,N,00454.5846,E,0.43,322.81,030414,,,A*66
$GPVTG,322.81,T,,M,0.43,N,0.80,K,A*38
$GPGGA,085535.000,5222.3309,N,00454.5846,E,1,7,1.09,15.5,M,47.0,M,,*6B
$GPGSA,A,3,02,16,05,23,13,29,07,,,,,,1.40,1.09,0.87*0F
$GPGSV,4,1,13,13,73,067,35,10,70,286,19,04,47,217,,07,43,165,18*75
$GPGSV,4,2,13,02,42,289,23,23,37,069,38,08,17,181,,16,15,066,34*78
$GPGSV,4,3,13,05,12,295,24,09,11,192,,40,09,115,,29,07,343,19*79
$GPGSV,4,4,13,20,07,120,*4D
$GPRMC,085535.000,A,5222.3309,N,00454.5846,E,0.43,322.81,030414,,,A*6B
$GPVTG,322.81,T,,M,0.43,N,0.79,K,A*3E
$GPGGA,085536.000,5222.3306,N,00454.5848,E,1,7,1.09,15.5,M,47.0,M,,*69
$GPGSA,A,3,02,16,05,23,13,29,07,,,,,,1.40,1.09,0.87*0F
$GPRMC,085536.000,A,5222.3306,N,00454.5848,E,0.23,322.81,030414,,,A*6F
$GPVTG,322.81,T,,M,0.23,N,0.43,K,A*31
$GPGGA,085537.000,5222.3306,N,00454.5847,E,1,7,1.09,15.5,M,47.0,M,,*67
$GPGSA,A,3,02,16,05,23,13,29,07,,,,,,1.40,1.09,0.87*0F
$GPRMC,085537.000,A,5222.3306,N,00454.5847,E,0.13,322.81,030414,,,A*62
$GPVTG,322.81,T,,M,0.13,N,0.24,K,A*33
$GPGGA,085538.000,5222.3307,N,00454.5847,E,1,6,1.18,15.5,M,47.0,M,,*68
$GPGSA,A,3,02,16,23,13,29,07,,,,,,,1.48,1.18,0.89*0C
$GPRMC,085538.000,A,5222.3307,N,00454.5847,E,0.19,322.81,030414,,,A*66
$GPVTG,322.81,T,,M,0.19,N,0.35,K,A*39
$GPGGA,085539.000,5222.3307,N,00454.5847,E,1,6,1.35,15.5,M,47.0,M,,*66
$GPGSA,A,3,02,16,23,13,29,07,,,,,,,2.35,1.35,1.93*00
$GPRMC,085539.000,A,5222.3307,N,00454.5847,E,0.26,322.81,030414,,,A*6B
$GPVTG,322.81,T,,M,0.26,N,0.49,K,A*3E
$GPGGA,085540.000,5222.3308,N,00454.5846,E,1,6,1.18,15.5,M,47.0,M,,*69
$GPGSA,A,3,02,16,23,13,29,07,,,,,,,1.47,1.18,0.89*03
$GPGSV,4,1,13,13,73,067,35,10,70,286,18,04,47,217,,07,43,165,18*74
$GPGSV,4,2,13,02,42,289,22,23,37,069,38,08,17,181,,16,15,066,34*79
$GPGSV,4,3,13,05,12,295,,09,11,192,,40,09,115,,29,07,343,21*74
$GPGSV,4,4,13,20,07,120,*4D
$GPRMC,085540.000,A,5222.3308,N,00454.5846,E,0.35,322.81,030414,,,A*69
$GPVTG,322.81,T,,M,0.35,N,0.65,K,A*32
$GPGGA,085541.000,5222.3309,N,00454.5847,E,1,6,1.35,15.5,M,47.0,M,,*67
$GPGSA,A,3,02,16,23,13,29,07,,,,,,,2.35,1.35,1.93*00
$GPRMC,085541.000,A,5222.3309,N,00454.5847,E,0.70,40.30,030414,,,A*54
$GPVTG,40.30,T,,M,0.70,N,1.29,K,A*07
$GPGGA,085542.000,5222.3312,N,00454.5851,E,1,7,1.09,15.5,M,47.0,M,,*67
$GPGSA,A,3,02,16,23,13,05,29,07,,,,,,1.40,1.09,0.87*0F
$GPRMC,085542.000,A,5222.3312,N,00454.5851,E,0.69,38.14,030414,,,A*5B
$GPVTG,38.14,T,,M,0.69,N,1.28,K,A*07
$GPGGA,085543.000,5222.3310,N,00454.5851,E,1,6,1.18,15.5,M,47.0,M,,*65
$GPGSA,A,3,02,16,23,13,29,07,,,,,,,1.47,1.18,0.89*03
$GPRMC,085543.000,A,5222.3310,N,00454.5851,E,0.52,38.14,030414,,,A*50
$GPVTG,38.14,T,,M,0.52,N,0.96,K,A*0B
$GPGGA,085544.000,5222.3309,N,00454.5852,E,1,6,1.18,15.5,M,47.0,M,,*69
$GPGSA,A,3,02,16,23,13,29,07,,,,,,,1.48,1.18,0.89*0C
$GPRMC,085544.000,A,5222.3309,N,00454.5852,E,0.27,38.14,030414,,,A*5E
$GPVTG,38.14,T,,M,0.27,N,0.50,K,A*03
$GPGGA,085545.000,5222.3308,N,00454.5852,E,1,6,1.18,15.5,M,47.0,M,,*69
$GPGSA,A,3,02,16,23,13,29,07,,,,,,,1.47,1.18,0.89*03
$GPGSV,4,1,13,13,73,067,34,10,70,286,20,04,46,217,,07,43,165,15*72
$GPGSV,4,2,13,02,42,289,21,23,37,069,37,08,17,181,,16,15,066,34*75
$GPGSV,4,3,13,05,12,295,,09,11,192,,44,08,114,,29,07,343,19*7B
$GPGSV,4,4,13,20,07,120,*4D
$GPRMC,085545.000,A,5222.3308,N,00454.5852,E,0.24,38.14,030414,,,A*5D
$GPVTG,38.14,T,,M,0.24,N,0.45,K,A*04
$GPGGA,085546.000,5222.3301,N,00454.5857,E,1,6,1.35,15.4,M,47.0,M,,*68
$GPGSA,A,3,02,16,23,13,29,07,,,,,,,2.36,1.35,1.93*03
$GPRMC,085546.000,A,5222.3301,N,00454.5857,E,0.19,38.14,030414,,,A*5C
$GPVTG,38.14,T,,M,0.19,N,0.36,K,A*0E
$GPGGA,085547.000,5222.3301,N,00454.5857,E,1,6,1.18,15.4,M,47.0,M,,*66
$GPGSA,A,3,02,16,23,13,29,07,,,,,,,1.48,1.18,0.89*0C
$GPRMC,085547.000,A,5222.3301,N,00454.5857,E,0.03,38.14,030414,,,A*56
$GPVTG,38.14,T,,M,0.03,N,0.05,K,A*05
$GPGGA,085548.000,5222.3301,N,00454.5857,E,1,6,1.18,15.4,M,47.0,M,,*69
$GPGSA,A,3,02,16,23,13,29,07,,,,,,,1.48,1.18,0.89*0C
$GPRMC,085548.000,A,5222.3301,N,00454.5857,E,0.13,38.14,030414,,,A*58
$GPVTG,38.14,T,,M,0.13,N,0.24,K,A*07
$GPGGA,085549.000,5222.3301,N,00454.5857,E,1,6,1.18,15.4,M,47.0,M,,*68
$GPGSA,A,3,02,16,23,13,29,07,,,,,,,1.48,1.18,0.89*0C
$GPRMC,085549.000,A,5222.3301,N,00454.5857,E,0.30,38.14,030414,,,A*58
$GPVTG,38.14,T,,M,0.30,N,0.55,K,A*00
$GPGGA,085550.000,5222.3300,N,00454.5856,E,1,6,1.18,15.4,M,47.0,M,,*60
$GPGSA,A,3,02,16,23,13,29,07,,,,,,,1.48,1.18,0.89*0C
$GPGSV,4,1,13,13,73,067,35,10,70,286,19,04,46,217,,07,43,165,11*7D
$GPGSV,4,2,13,02,42,289,21,23,37,069,36,08,18,181,,16,15,066,34*7B
$GPGSV,4,3,13,05,12,295,,09,11,192,,44,08,114,,29,07,343,22*73
$GPGSV,4,4,13,20,07,120,*4D
$GPRMC,085550.000,A,5222.3300,N,00454.5856,E,0.50,38.14,030414,,,A*56
$GPVTG,38.14,T,,M,0.50,N,0.93,K,A*0C
$GPGGA,085551.000,5222.3299,N,00454.5855,E,1,6,1.18,15.3,M,47.0,M,,*64
$GPGSA,A,3,02,16,23,13,29,07,,,,,,,1.48,1.18,0.89*0C
$GPRMC,085551.000,A,5222.3299,N,00454.5855,E,0.72,223.01,030414,,,A*69
$GPVTG,223.01,T,,M,0.72,N,1.33,K,A*3B
$GPGGA,085552.000,5222.3286,N,00454.5861,E,1,6,1.18,15.4,M,47.0,M,,*69
$GPGSA,A,3,02,16,23,13,29,07,,,,,,,1.48,1.18,0.89*0C
$GPRMC,085552.000,A,5222.3286,N,00454.5861,E,0.96,222.67,030414,,,A*68
$GPVTG,222.67,T,,M,0.96,N,1.77,K,A*30
$GPGGA,085553.000,5222.3275,N,00454.5865,E,1,6,1.18,15.3,M,47.0,M,,*67
$GPGSA,A,3,02,16,23,13,29,07,,,,,,,1.48,1.18,0.89*0C
$GPRMC,085553.000,A,5222.3275,N,00454.5865,E,1.13,221.62,030414,,,A*6B
$GPVTG,221.62,T,,M,1.13,N,2.09,K,A*30
$GPGGA,085554.000,5222.3267,N,00454.5868,E,1,6,1.18,15.3,M,47.0,M,,*6E
$GPGSA,A,3,02,16,23,13,29,07,,,,,,,1.48,1.18,0.89*0C
$GPRMC,085554.000,A,5222.3267,N,00454.5868,E,1.11,220.30,030414,,,A*66
$GPVTG,220.30,T,,M,1.11,N,2.06,K,A*3B
$GPGGA,085555.000,5222.3265,N,00454.5871,E,1,6,1.18,15.3,M,47.0,M,,*65
$GPGSA,A,3,02,16,23,13,29,07,,,,,,,1.48,1.18,0.89*0C
$GPGSV,4,1,13,13,73,067,35,10,70,286,20,04,46,217,,07,43,165,16*70
$GPGSV,4,2,13,02,42,289,22,23,37,069,36,08,18,181,,16,15,066,36*7A
$GPGSV,4,3,13,05,12,295,,09,11,192,,29,07,343,23,20,07,120,*78
$GPGSV,4,4,13,34,,,*7C
$GPRMC,085555.000,A,5222.3265,N,00454.5871,E,0.89,199.54,030414,,,A*6E
$GPVTG,199.54,T,,M,0.89,N,1.66,K,A*3D
$GPGGA,085556.000,5222.3259,N,00454.5872,E,1,6,1.18,15.3,M,47.0,M,,*6A
$GPGSA,A,3,02,16,23,13,29,07,,,,,,,1.48,1.18,0.89*0C
$GPRMC,085556.000,A,5222.3259,N,00454.5872,E,0.96,200.07,030414,,,A*6A
$GPVTG,200.07,T,,M,0.96,N,1.78,K,A*39
$GPGGA,085557.000,5222.3256,N,00454.5870,E,1,6,1.18,15.3,M,47.0,M,,*66
$GPGSA,A,3,02,16,23,13,29,07,,,,,,,1.48,1.18,0.89*0C
$GPRMC,085557.000,A,5222.3256,N,00454.5870,E,0.95,200.84,030414,,,A*6E
$GPVTG,200.84,T,,M,0.95,N,1.75,K,A*3C
$GPGGA,085558.000,5222.3255,N,00454.5869,E,1,6,1.18,15.2,M,47.0,M,,*63
$GPGSA,A,3,02,16,23,13,29,07,,,,,,,1.48,1.18,0.89*0C
$GPRMC,085558.000,A,5222.3255,N,00454.5869,E,0.77,201.50,030414,,,A*6E
$GPVTG,201.50,T,,M,0.77,N,1.43,K,A*3D
$GPGGA,085559.000,5222.3253,N,00454.5867,E,1,6,1.18,15.2,M,47.0,M,,*6A
$GPGSA,A,3,02,16,23,13,29,07,,,,,,,1.48,1.18,0.89*0C
$GPRMC,085559.000,A,5222.3253,N,00454.5867,E,0.77,215.09,030414,,,A*6E
$GPVTG,215.09,T,,M,0.77,N,1.43,K,A*34
$GPGGA,085600.000,5222.3253,N,00454.5864,E,1,6,1.18,15.2,M,47.0,M,,*66
$GPGSA,A,3,02,16,23,13,29,07,,,,,,,1.48,1.18,0.89*0C
$GPGSV,4,1,13,13,73,067,35,10,70,286,21,04,46,217,,07,43,165,17*70
$GPGSV,4,2,13,02,42,289,22,23,37,069,37,08,18,181,,16,15,066,37*7A
$GPGSV,4,3,13,05,12,295,,09,11,192,,29,07,343,24,20,07,121,*7E
$GPGSV,4,4,13,34,,,*7C
$GPRMC,085600.000,A,5222.3253,N,00454.5864,E,0.73,219.41,030414,,,A*66
$GPVTG,219.41,T,,M,0.73,N,1.35,K,A*31
$GPGGA,085601.000,5222.3253,N,00454.5864,E,1,6,1.18,15.1,M,47.0,M,,*64
$GPGSA,A,3,02,16,23,13,29,07,,,,,,,1.48,1.18,0.89*0C
$GPRMC,085601.000,A,5222.3253,N,00454.5864,E,0.27,219.41,030414,,,A*66
$GPVTG,219.41,T,,M,0.27,N,0.51,K,A*33
$GPGGA,085602.000,5222.3254,N,00454.5865,E,1,6,1.18,15.1,M,47.0,M,,*61
$GPGSA,A,3,02,16,23,13,29,07,,,,,,,1.48,1.18,0.89*0C
$GPRMC,085602.000,A,5222.3254,N,00454.5865,E,0.23,219.41,030414,,,A*67
$GPVTG,219.41,T,,M,0.23,N,0.42,K,A*35
$GPGGA,085603.000,5222.3252,N,00454.5864,E,1,6,1.18,15.1,M,47.0,M,,*67
$GPGSA,A,3,02,16,23,13,29,07,,,,,,,1.48,1.18,0.89*0C
$GPRMC,085603.000,A,5222.3252,N,00454.5864,E,0.25,219.41,030414,,,A*67
$GPVTG,219.41,T,,M,0.25,N,0.47,K,A*36
$GPGGA,085604.000,5222.3253,N,00454.5863,E,1,6,1.18,15.1,M,47.0,M,,*66
$GPGSA,A,3,02,16,23,13,29,07,,,,,,,1.48,1.18,0.89*0C
$GPRMC,085604.000,A,5222.3253,N,00454.5863,E,0.09,219.41,030414,,,A*68
$GPVTG,219.41,T,,M,0.09,N,0.16,K,A*3C
$GPGGA,085605.000,5222.3253,N,00454.5863,E,1,6,1.18,15.1,M,47.0,M,,*67
$GPGSA,A,3,02,16,23,13,29,07,,,,,,,1.48,1.18,0.89*0C
$GPGSV,4,1,13,13,73,067,35,10,70,286,22,04,46,217,,07,43,165,14*70
$GPGSV,4,2,13,02,42,289,20,23,37,069,37,08,18,181,,16,15,066,37*78
$GPGSV,4,3,13,05,12,295,,09,11,192,,29,07,343,24,20,07,121,*7E
$GPGSV,4,4,13,35,,,*7D
$GPRMC,085605.000,A,5222.3253,N,00454.5863,E,0.61,252.38,030414,,,A*66
$GPVTG,252.38,T,,M,0.61,N,1.13,K,A*37
$GPGGA,085606.000,5222.3255,N,00454.5861,E,1,6,1.18,15.1,M,47.0,M,,*60
$GPGSA,A,3,02,16,23,13,29,07,,,,,,,1.48,1.18,0.89*0C
$GPRMC,085606.000,A,5222.3255,N,00454.5861,E,0.83,255.75,030414,,,A*63
$GPVTG,255.75,T,,M,0.83,N,1.55,K,A*37
$GPGGA,085607.000,5222.3256,N,00454.5856,E,1,6,1.18,15.1,M,47.0,M,,*66
$GPGSA,A,3,02,16,23,13,29,07,,,,,,,1.48,1.18,0.89*0C
$GPRMC,085607.000,A,5222.3256,N,00454.5856,E,0.86,256.13,030414,,,A*63
$GPVTG,256.13,T,,M,0.86,N,1.59,K,A*3D
$GPGGA,085608.000,5222.3255,N,00454.5854,E,1,6,1.18,15.1,M,47.0,M,,*68
$GPGSA,A,3,02,16,23,13,29,07,,,,,,,1.48,1.18,0.89*0C
$GPRMC,085608.000,A,5222.3255,N,00454.5854,E,0.84,248.02,030414,,,A*60
$GPVTG,248.02,T,,M,0.84,N,1.55,K,A*3C
$GPGGA,085609.000,5222.3257,N,00454.5851,E,1,6,1.18,15.1,M,47.0,M,,*6E
$GPGSA,A,3,02,16,23,13,29,07,,,,,,,1.48,1.18,0.89*0C
$GPRMC,085609.000,A,5222.3257,N,00454.5851,E,0.81,248.69,030414,,,A*6E
$GPVTG,248.69,T,,M,0.81,N,1.50,K,A*31
$GPGGA,085610.000,5222.3260,N,00454.5848,E,1,6,1.18,15.0,M,47.0,M,,*6B
$GPGSA,A,3,02,16,23,13,29,07,,,,,,,1.48,1.18,0.89*0C
$GPGSV,4,1,13,13,73,067,34,10,70,286,21,04,46,217,,07,43,165,14*72
$GPGSV,4,2,13,02,42,289,21,23,37,069,37,08,18,181,,16,15,066,38*76
$GPGSV,4,3,13,05,12,295,,09,11,192,,29,07,342,25,20,07,121,*7E
$GPGSV,4,4,13,36,,,*7E
$GPRMC,085610.000,A,5222.3260,N,00454.5848,E,0.50,248.69,030414,,,A*66
$GPVTG,248.69,T,,M,0.50,N,0.92,K,A*32
$GPGGA,085611.000,5222.3264,N,00454.5846,E,1,6,1.18,15.0,M,47.0,M,,*60
$GPGSA,A,3,02,16,23,13,29,07,,,,,,,1.48,1.18,0.89*0C
$GPRMC,085611.000,A,5222.3264,N,00454.5846,E,0.54,248.69,030414,,,A*69
$GPVTG,248.69,T,,M,0.54,N,1.00,K,A*3C
$GPGGA,085612.000,5222.3269,N,00454.5845,E,1,6,1.18,15.0,M,47.0,M,,*6D
$GPGSA,A,3,02,16,23,13,29,07,,,,,,,1.48,1.18,0.89*0C
$GPRMC,085612.000,A,5222.3269,N,00454.5845,E,0.61,295.33,030414,,,A*6D
$GPVTG,295.33,T,,M,0.61,N,1.14,K,A*30
$GPGGA,085613.000,5222.3269,N,00454.5844,E,1,6,1.18,15.0,M,47.0,M,,*6D
$GPGSA,A,3,02,16,23,13,29,07,,,,,,,1.48,1.18,0.89*0C
$GPRMC,085613.000,A,5222.3269,N,00454.5844,E,0.63,278.01,030414,,,A*6D
$GPVTG,278.01,T,,M,0.63,N,1.17,K,A*33
$GPGGA,085614.000,5222.3270,N,00454.5843,E,1,6,1.18,15.0,M,47.0,M,,*65
$GPGSA,A,3,02,16,23,13,29,07,,,,,,,1.48,1.18,0.89*0C
$GPRMC,085614.000,A,5222.3270,N,00454.5843,E,0.61,278.81,030414,,,A*6F
$GPVTG,278.81,T,,M,0.61,N,1.14,K,A*3A
$GPGGA,085615.000,5222.3269,N,00454.5841,E,1,6,1.18,15.0,M,47.0,M,,*6E
$GPGSA,A,3,02,16,23,13,29,07,,,,,,,1.48,1.18,0.89*0C
$GPGSV,4,1,13,13,73,067,35,10,70,286,19,04,46,217,,07,43,165,17*7B
$GPGSV,4,2,13,02,42,289,22,23,37,069,38,08,18,181,,16,15,066,38*7A
$GPGSV,4,3,13,05,12,295,,09,11,192,,29,07,342,27,20,07,121,*7C
$GPGSV,4,4,13,38,,,*70
$GPRMC,085615.000,A,5222.3269,N,00454.5841,E,0.54,278.81,030414,,,A*62
$GPVTG,278.81,T,,M,0.54,N,1.00,K,A*39
$GPGGA,085616.000,5222.3267,N,00454.5839,E,1,6,1.18,14.9,M,47.0,M,,*64
$GPGSA,A,3,02,16,23,13,29,07,,,,,,,1.48,1.18,0.89*0C
$GPRMC,085616.000,A,5222.3267,N,00454.5839,E,0.37,278.81,030414,,,A*65
$GPVTG,278.81,T,,M,0.37,N,0.69,K,A*32
$GPGGA,085617.000,5222.3266,N,00454.5839,E,1,6,1.18,14.9,M,47.0,M,,*64
$GPGSA,A,3,02,16,23,13,29,07,,,,,,,1.48,1.18,0.89*0C
$GPRMC,085617.000,A,5222.3266,N,00454.5839,E,0.33,278.81,030414,,,A*61
$GPVTG,278.81,T,,M,0.33,N,0.60,K,A*3F
$GPGGA,085618.000,5222.3265,N,00454.5840,E,1,6,1.18,14.9,M,47.0,M,,*66
$GPGSA,A,3,02,16,23,13,29,07,,,,,,,1.48,1.18,0.89*0C
$GPRMC,085618.000,A,5222.3265,N,00454.5840,E,0.25,278.81,030414,,,A*64
$GPVTG,278.81,T,,M,0.25,N,0.47,K,A*3D
$GPGGA,085619.000,5222.3264,N,00454.5839,E,1,6,1.18,14.9,M,47.0,M,,*68
$GPGSA,A,3,02,16,23,13,29,07,,,,,,,1.48,1.18,0.89*0C
$GPRMC,085619.000,A,5222.3264,N,00454.5839,E,0.43,278.81,030414,,,A*6A
$GPVTG,278.81,T,,M,0.43,N,0.80,K,A*36
$GPGGA,085620.000,5222.3264,N,00454.5838,E,1,6,1.18,14.9,M,47.0,M,,*63
$GPGSA,A,3,02,16,23,13,29,07,,,,,,,1.48,1.18,0.89*0C
$GPGSV,4,1,13,13,73,067,35,10,70,286,18,04,46,216,,02,43,288,19*70
$GPGSV,4,2,13,07,43,165,16,23,37,069,38,08,18,181,,16,15,066,38*78
$GPGSV,4,3,13,05,12,295,,09,11,192,,29,07,342,27,20,07,121,*7C
$GPGSV,4,4,13,38,,,*70
$GPRMC,085620.000,A,5222.3264,N,00454.5838,E,0.58,252.08,030414,,,A*62
$GPVTG,252.08,T,,M,0.58,N,1.08,K,A*34
$GPGGA,085621.000,5222.3264,N,00454.5835,E,1,6,1.18,14.9,M,47.0,M,,*6F
$GPGSA,A,3,02,16,23,13,29,07,,,,,,,1.48,1.18,0.89*0C
$GPRMC,085621.000,A,5222.3264,N,00454.5835,E,0.65,251.50,030414,,,A*6E
$GPVTG,251.50,T,,M,0.65,N,1.21,K,A*3F
$GPGGA,085622.000,5222.3263,N,00454.5836,E,1,6,1.18,14.8,M,47.0,M,,*69
$GPGSA,A,3,02,16,23,13,29,07,,,,,,,1.48,1.18,0.89*0C
$GPRMC,085622.000,A,5222.3263,N,00454.5836,E,0.58,251.50,030414,,,A*67
$GPVTG,251.50,T,,M,0.58,N,1.07,K,A*35
$GPGGA,085623.000,5222.3263,N,00454.5832,E,1,6,1.18,14.8,M,47.0,M,,*6C
$GPGSA,A,3,02,16,23,13,29,07,,,,,,,1.48,1.18,0.89*0C
$GPRMC,085623.000,A,5222.3263,N,00454.5832,E,0.52,251.50,030414,,,A*68
$GPVTG,251.50,T,,M,0.52,N,0.97,K,A*37
$GPGGA,085624.000,5222.3259,N,00454.5830,E,1,7,1.10,14.8,M,47.0,M,,*69
$GPGSA,A,3,02,16,23,13,05,29,07,,,,,,1.40,1.10,0.87*07
$GPRMC,085624.000,A,5222.3259,N,00454.5830,E,0.51,251.50,030414,,,A*67
$GPVTG,251.50,T,,M,0.51,N,0.94,K,A*37
$GPGGA,085625.000,5222.3258,N,00454.5830,E,1,7,1.10,14.8,M,47.0,M,,*69
$GPGSA,A,3,02,16,23,13,05,29,07,,,,,,1.40,1.10,0.87*07
$GPGSV,4,1,13,13,73,067,35,10,70,286,16,04,46,216,,02,43,288,19*7E
$GPGSV,4,2,13,07,43,165,16,23,37,069,40,08,18,181,,16,15,066,37*78
$GPGSV,4,3,13,05,12,295,20,09,12,192,,29,07,342,28,20,07,121,*72
$GPGSV,4,4,13,41,,,*7E
$GPRMC,085625.000,A,5222.3258,N,00454.5830,E,0.50,251.50,030414,,,A*66
$GPVTG,251.50,T,,M,0.50,N,0.93,K,A*31
$GPGGA,085626.000,5222.3257,N,00454.5828,E,1,7,1.10,14.8,M,47.0,M,,*6C
$GPGSA,A,3,02,16,23,13,05,29,07,,,,,,1.40,1.10,0.87*07
$GPRMC,085626.000,A,5222.3257,N,00454.5828,E,0.47,251.50,030414,,,A*65
$GPVTG,251.50,T,,M,0.47,N,0.87,K,A*32
$GPGGA,085627.000,5222.3256,N,00454.5827,E,1,7,1.10,14.8,M,47.0,M,,*63
$GPGSA,A,3,02,16,23,13,05,29,07,,,,,,1.40,1.10,0.87*07
$GPRMC,085627.000,A,5222.3256,N,00454.5827,E,0.33,251.50,030414,,,A*69
$GPVTG,251.50,T,,M,0.33,N,0.62,K,A*3A
$GPGGA,085628.000,5222.3256,N,00454.5825,E,1,6,1.18,14.8,M,47.0,M,,*67
$GPGSA,A,3,02,16,23,13,29,07,,,,,,,1.48,1.18,0.89*0C
$GPRMC,085628.000,A,5222.3256,N,00454.5825,E,0.26,251.50,030414,,,A*60
$GPVTG,251.50,T,,M,0.26,N,0.48,K,A*36
$GPGGA,085629.000,5222.3256,N,00454.5825,E,1,6,1.18,14.8,M,47.0,M,,*66
$GPGSA,A,3,02,16,23,13,29,07,,,,,,,1.48,1.18,0.89*0C
$GPRMC,085629.000,A,5222.3256,N,00454.5825,E,0.43,251.50,030414,,,A*62
$GPVTG,251.50,T,,M,0.43,N,0.80,K,A*31
$GPGGA,085630.000,5222.3255,N,00454.5824,E,1,6,1.18,14.8,M,47.0,M,,*6C
$GPGSA,A,3,02,16,23,13,29,07,,,,,,,1.48,1.18,0.89*0C
$GPGSV,4,1,13,13,72,067,37,10,70,286,16,04,46,216,,02,43,288,23*74
$GPGSV,4,2,13,07,43,165,15,23,37,069,42,08,18,181,,16,15,066,38*76
$GPGSV,4,3,13,05,12,295,,09,12,192,,29,07,342,30,20,07,121,*79
$GPGSV,4,4,13,43,,,*7C
$GPRMC,085630.000,A,5222.3255,N,00454.5824,E,0.56,251.50,030414,,,A*6C
$GPVTG,251.50,T,,M,0.56,N,1.04,K,A*38
$GPGGA,085631.000,5222.3253,N,00454.5822,E,1,6,1.18,14.8,M,47.0,M,,*6D
$GPGSA,A,3,02,16,23,13,29,07,,,,,,,1.48,1.18,0.89*0C
$GPRMC,085631.000,A,5222.3253,N,00454.5822,E,0.48,251.50,030414,,,A*62
$GPVTG,251.50,T,,M,0.48,N,0.89,K,A*33
$GPGGA,085632.000,5222.3252,N,00454.5822,E,1,6,1.18,14.7,M,47.0,M,,*60
$GPGSA,A,3,02,16,23,13,29,07,,,,,,,1.48,1.18,0.89*0C
$GPRMC,085632.000,A,5222.3252,N,00454.5822,E,0.20,251.50,030414,,,A*6E
$GPVTG,251.50,T,,M,0.20,N,0.38,K,A*37
$GPGGA,085633.000,5222.3251,N,00454.5821,E,1,6,1.18,14.7,M,47.0,M,,*61
$GPGSA,A,3,02,16,23,13,29,07,,,,,,,1.48,1.18,0.89*0C
$GPRMC,085633.000,A,5222.3251,N,00454.5821,E,0.28,251.50,030414,,,A*67
$GPVTG,251.50,T,,M,0.28,N,0.52,K,A*33
$GPGGA,085634.000,5222.3251,N,00454.5821,E,1,6,1.18,14.7,M,47.0,M,,*66
$GPGSA,A,3,02,16,23,13,29,07,,,,,,,1.48,1.18,0.89*0C
$GPRMC,085634.000,A,5222.3251,N,00454.5821,E,0.34,251.50,030414,,,A*6D
$GPVTG,251.50,T,,M,0.34,N,0.62,K,A*3D
$GPGGA,085635.000,5222.3250,N,00454.5821,E,1,6,1.18,14.7,M,47.0,M,,*66
$GPGSA,A,3,02,16,23,13,29,07,,,,,,,1.48,1.18,0.89*0C
$GPGSV,4,1,13,13,72,067,37,10,70,286,18,04,46,216,,02,43,288,20*79
$GPGSV,4,2,13,07,43,165,16,23,37,069,41,08,18,181,,16,15,066,37*79
$GPGSV,4,3,13,05,12,295,,09,12,192,,29,07,342,31,20,06,121,*79
$GPGSV,4,4,13,45,,,*7A
$GPRMC,085635.000,A,5222.3250,N,00454.5821,E,0.33,251.50,030414,,,A*6A
$GPVTG,251.50,T,,M,0.33,N,0.61,K,A*39
$GPGGA,085636.000,5222.3250,N,00454.5822,E,1,6,1.18,14.7,M,47.0,M,,*66
$GPGSA,A,3,02,16,23,13,29,07,,,,,,,1.48,1.18,0.89*0C
$GPRMC,085636.000,A,5222.3250,N,00454.5822,E,0.27,251.50,030414,,,A*6F
$GPVTG,251.50,T,,M,0.27,N,0.50,K,A*3E
$GPGGA,085637.000,5222.3250,N,00454.5823,E,1,6,1.18,14.7,M,47.0,M,,*66
$GPGSA,A,3,02,16,23,13,29,07,,,,,,,1.48,1.18,0.89*0C
$GPRMC,085637.000,A,5222.3250,N,00454.5823,E,0.18,251.50,030414,,,A*63
$GPVTG,251.50,T,,M,0.18,N,0.33,K,A*37
$GPGGA,085638.000,5222.3249,N,00454.5823,E,1,6,1.18,14.7,M,47.0,M,,*61
$GPGSA,A,3,02,16,23,13,29,07,,,,,,,1.48,1.18,0.89*0C
$GPRMC,085638.000,A,5222.3249,N,00454.5823,E,0.37,251.50,030414,,,A*69
$GPVTG,251.50,T,,M,0.37,N,0.69,K,A*35
$GPGGA,085639.000,5222.3248,N,00454.5823,E,1,6,1.18,14.7,M,47.0,M,,*61
$GPGSA,A,3,02,16,23,13,29,07,,,,,,,1.48,1.18,0.89*0C
$GPRMC,085639.000,A,5222.3248,N,00454.5823,E,0.32,251.50,030414,,,A*6C
$GPVTG,251.50,T,,M,0.32,N,0.60,K,A*39
$GPGGA,085640.000,5222.3248,N,00454.5822,E,1,6,1.18,14.7,M,47.0,M,,*6E
$GPGSA,A,3,02,16,23,13,29,07,,,,,,,1.48,1.18,0.89*0C
$GPGSV,4,1,13,13,72,067,37,10,70,286,21,04,46,216,,02,43,288,18*78
$GPGSV,4,2,13,07,43,165,15,23,36,069,41,08,18,181,,16,15,066,38*74
$GPGSV,4,3,13,05,12,295,,09,12,192,,29,07,342,33,20,06,121,*7B
$GPGSV,4,4,13,46,,,*79
$GPRMC,085640.000,A,5222.3248,N,00454.5822,E,0.31,251.50,030414,,,A*60
$GPVTG,251.50,T,,M,0.31,N,0.58,K,A*31
$GPGGA,085641.000,5222.3247,N,00454.5821,E,1,6,1.18,14.7,M,47.0,M,,*63
$GPGSA,A,3,02,16,23,13,29,07,,,,,,,1.48,1.18,0.89*0C
$GPRMC,085641.000,A,5222.3247,N,00454.5821,E,0.16,251.50,030414,,,A*68
$GPVTG,251.50,T,,M,0.16,N,0.30,K,A*3A
$GPGGA,085642.000,5222.3247,N,00454.5820,E,1,6,1.18,14.7,M,47.0,M,,*61
$GPGSA,A,3,02,16,23,13,29,07,,,,,,,1.48,1.18,0.89*0C
$GPRMC,085642.000,A,5222.3247,N,00454.5820,E,0.31,251.50,030414,,,A*6F
$GPVTG,251.50,T,,M,0.31,N,0.57,K,A*3E
$GPGGA,085643.000,5222.3246,N,00454.5820,E,1,6,1.18,14.7,M,47.0,M,,*61
$GPGSA,A,3,02,16,23,13,29,07,,,,,,,1.48,1.18,0.89*0C
$GPRMC,085643.000,A,5222.3246,N,00454.5820,E,0.10,251.50,030414,,,A*6C
$GPVTG,251.50,T,,M,0.10,N,0.19,K,A*37
$GPGGA,085644.000,5222.3246,N,00454.5820,E,1,6,1.18,14.7,M,47.0,M,,*66
$GPGSA,A,3,02,16,23,13,29,07,,,,,,,1.48,1.18,0.89*0C
$GPRMC,085644.000,A,5222.3246,N,00454.5820,E,0.04,251.50,030414,,,A*6E
$GPVTG,251.50,T,,M,0.04,N,0.07,K,A*3D
$GPGGA,085645.000,5222.3245,N,00454.5821,E,1,6,1.18,14.6,M,47.0,M,,*64
$GPGSA,A,3,02,16,23,13,29,07,,,,,,,1.48,1.18,0.89*0C
$GPGSV,4,1,13,13,72,067,38,10,70,286,22,04,46,216,,02,43,288,18*74
$GPGSV,4,2,13,07,43,165,16,23,36,069,41,08,18,181,,16,15,066,38*77
$GPGSV,4,3,13,05,12,295,,09,12,192,,29,07,342,35,20,06,121,*7D
$GPGSV,4,4,13,46,,,*79
$GPRMC,085645.000,A,5222.3245,N,00454.5821,E,0.16,251.50,030414,,,A*6E
$GPVTG,251.50,T,,M,0.16,N,0.29,K,A*32
$GPGGA,085646.000,5222.3245,N,00454.5820,E,1,6,1.18,14.6,M,47.0,M,,*66
$GPGSA,A,3,02,16,23,13,29,07,,,,,,,1.48,1.18,0.89*0C
$GPRMC,085646.000,A,5222.3245,N,00454.5820,E,0.15,251.50,030414,,,A*6F
$GPVTG,251.50,T,,M,0.15,N,0.27,K,A*3F
$GPGGA,085647.000,5222.3245,N,00454.5820,E,1,6,1.18,14.6,M,47.0,M,,*67
$GPGSA,A,3,02,16,23,13,29,07,,,,,,,1.48,1.18,0.89*0C
$GPRMC,085647.000,A,5222.3245,N,00454.5820,E,0.03,251.50,030414,,,A*69
$GPVTG,251.50,T,,M,0.03,N,0.06,K,A*3B
$GPGGA,085648.000,5222.3245,N,00454.5820,E,1,7,0.97,14.6,M,47.0,M,,*6F
$GPGSA,A,3,02,16,08,23,13,29,07,,,,,,1.27,0.97,0.82*00
$GPRMC,085648.000,A,5222.3245,N,00454.5820,E,0.07,251.50,030414,,,A*62
$GPVTG,251.50,T,,M,0.07,N,0.13,K,A*3B
$GPGGA,085649.000,5222.3245,N,00454.5820,E,1,7,0.96,14.6,M,47.0,M,,*6F
$GPGSA,A,3,02,16,08,23,13,29,07,,,,,,1.27,0.96,0.82*01
$GPRMC,085649.000,A,5222.3245,N,00454.5820,E,0.06,251.50,030414,,,A*62
$GPVTG,251.50,T,,M,0.06,N,0.11,K,A*38
$GPGGA,085650.000,5222.3245,N,00454.5820,E,1,7,0.97,14.6,M,47.0,M,,*66
$GPGSA,A,3,02,16,08,23,13,29,07,,,,,,1.27,0.97,0.82*00
$GPGSV,4,1,13,13,72,067,38,10,70,286,23,04,46,216,,02,43,288,18*75
$GPGSV,4,2,13,07,43,165,17,23,36,069,41,08,18,181,20,16,15,066,39*75
$GPGSV,4,3,13,05,12,295,,09,12,192,,29,07,342,33,20,06,121,*7B
$GPGSV,4,4,13,47,,,*78
$GPRMC,085650.000,A,5222.3245,N,00454.5820,E,0.15,251.50,030414,,,A*68
$GPVTG,251.50,T,,M,0.15,N,0.28,K,A*30
$GPGGA,085651.000,5222.3245,N,00454.5821,E,1,7,0.97,14.6,M,47.0,M,,*66
$GPGSA,A,3,02,16,08,23,13,29,07,,,,,,1.27,0.97,0.82*00
$GPRMC,085651.000,A,5222.3245,N,00454.5821,E,0.17,251.50,030414,,,A*6A
$GPVTG,251.50,T,,M,0.17,N,0.31,K,A*3A
$GPGGA,085652.000,5222.3245,N,00454.5822,E,1,7,0.97,14.6,M,47.0,M,,*66
$GPGSA,A,3,02,16,08,23,13,29,07,,,,,,1.27,0.97,0.82*00
$GPRMC,085652.000,A,5222.3245,N,00454.5822,E,0.19,251.50,030414,,,A*64
$GPVTG,251.50,T,,M,0.19,N,0.35,K,A*30
$GPGGA,085653.000,5222.3244,N,00454.5822,E,1,7,0.97,14.6,M,47.0,M,,*66
$GPGSA,A,3,02,16,08,23,13,29,07,,,,,,1.27,0.97,0.82*00
$GPRMC,085653.000,A,5222.3244,N,00454.5822,E,0.19,251.50,030414,,,A*64
$GPVTG,251.50,T,,M,0.19,N,0.34,K,A*31
$GPGGA,085654.000,5222.3244,N,00454.5823,E,1,7,0.97,14.6,M,47.0,M,,*60
$GPGSA,A,3,02,16,08,23,13,29,07,,,,,,1.27,0.97,0.82*00
$GPRMC,085654.000,A,5222.3244,N,00454.5823,E,0.19,251.50,030414,,,A*62
$GPVTG,251.50,T,,M,0.19,N,0.34,K,A*31
$GPGGA,085655.000,5222.3243,N,00454.5824,E,1,7,0.97,14.6,M,47.0,M,,*61
$GPGSA,A,3,02,16,08,23,13,29,07,,,,,,1.27,0.97,0.82*00
$GPGSV,4,1,13,13,72,067,38,10,70,286,23,04,46,216,,02,43,288,23*7D
$GPGSV,4,2,13,07,43,165,13,23,36,069,41,08,18,181,18,16,15,066,39*7A
$GPGSV,4,3,13,05,13,296,,09,12,192,,29,07,342,33,20,06,121,*79
$GPGSV,4,4,13,49,,,*76
$GPRMC,085655.000,A,5222.3243,N,00454.5824,E,0.10,251.50,030414,,,A*6A
$GPVTG,251.50,T,,M,0.10,N,0.18,K,A*36
$GPGGA,085656.000,5222.3243,N,00454.5824,E,1,7,0.97,14.6,M,47.0,M,,*62
$GPGSA,A,3,02,16,08,23,13,29,07,,,,,,1.27,0.97,0.82*00
$GPRMC,085656.000,A,5222.3243,N,00454.5824,E,0.23,251.50,030414,,,A*69
$GPVTG,251.50,T,,M,0.23,N,0.42,K,A*39
$GPGGA,085657.000,5222.3243,N,00454.5823,E,1,7,0.96,14.6,M,47.0,M,,*65
$GPGSA,A,3,02,16,08,23,13,29,07,,,,,,1.27,0.96,0.82*01
$GPRMC,085657.000,A,5222.3243,N,00454.5823,E,0.12,251.50,030414,,,A*6D
$GPVTG,251.50,T,,M,0.12,N,0.23,K,A*3C
$GPGGA,085658.000,5222.3243,N,00454.5822,E,1,7,0.97,14.6,M,47.0,M,,*6A
$GPGSA,A,3,02,16,08,23,13,29,07,,,,,,1.27,0.97,0.82*00
$GPRMC,085658.000,A,5222.3243,N,00454.5822,E,0.13,251.50,030414,,,A*62
$GPVTG,251.50,T,,M,0.13,N,0.23,K,A*3D
$GPGGA,085659.000,5222.3243,N,00454.5822,E,1,7,0.97,14.6,M,47.0,M,,*6B
$GPGSA,A,3,02,16,08,23,13,29,07,,,,,,1.27,0.97,0.82*00
$GPRMC,085659.000,A,5222.3243,N,00454.5822,E,0.21,251.50,030414,,,A*62
$GPVTG,251.50,T,,M,0.21,N,0.39,K,A*37
$GPGGA,085700.000,5222.3243,N,00454.5823,E,1,7,0.97,14.6,M,47.0,M,,*67
$GPGSA,A,3,02,16,08,23,13,29,07,,,,,,1.27,0.97,0.82*00
$GPGSV,4,1,13,13,72,067,31,10,70,285,20,04,46,216,,07,44,164,17*70
$GPGSV,4,2,13,02,43,288,22,23,36,069,35,08,18,181,17,16,15,066,35*7D
$GPGSV,4,3,13,05,13,296,,09,12,192,,29,07,342,25,20,06,121,*7E
$GPGSV,4,4,13,49,,,*76
$GPRMC,085700.000,A,5222.3243,N,00454.5823,E,0.53,251.50,030414,,,A*6B
$GPVTG,251.50,T,,M,0.53,N,0.98,K,A*39
$GPGGA,085701.000,5222.3244,N,00454.5825,E,1,7,0.97,14.6,M,47.0,M,,*67
$GPGSA,A,3,02,16,08,23,13,29,07,,,,,,1.27,0.97,0.82*00
$GPRMC,085701.000,A,5222.3244,N,00454.5825,E,0.43,251.50,030414,,,A*6A
$GPVTG,251.50,T,,M,0.43,N,0.80,K,A*31
$GPGGA,085702.000,5222.3245,N,00454.5826,E,1,8,0.87,14.6,M,47.0,M,,*68
$GPGSA,A,3,02,16,08,23,13,05,29,07,,,,,1.19,0.87,0.81*0A
$GPRMC,085702.000,A,5222.3245,N,00454.5826,E,0.49,251.50,030414,,,A*61
$GPVTG,251.50,T,,M,0.49,N,0.90,K,A*3A
$GPGGA,085703.000,5222.3246,N,00454.5828,E,1,8,0.87,14.6,M,47.0,M,,*64
$GPGSA,A,3,02,16,08,23,13,05,29,07,,,,,1.19,0.87,0.81*0A
$GPRMC,085703.000,A,5222.3246,N,00454.5828,E,0.60,34.92,030414,,,A*59
$GPVTG,34.92,T,,M,0.60,N,1.10,K,A*07
$GPGGA,085704.000,5222.3246,N,00454.5830,E,1,7,1.10,14.6,M,47.0,M,,*6A
$GPGSA,A,3,02,16,23,13,05,29,07,,,,,,1.40,1.10,0.87*07
$GPRMC,085704.000,A,5222.3246,N,00454.5830,E,0.55,34.92,030414,,,A*51
$GPVTG,34.92,T,,M,0.55,N,1.03,K,A*03
$GPGGA,085705.000,5222.3244,N,00454.5830,E,1,7,1.10,14.6,M,47.0,M,,*69
$GPGSA,A,3,02,16,23,13,05,29,07,,,,,,1.40,1.10,0.87*07
$GPGSV,4,1,13,13,72,067,37,10,70,285,22,04,46,216,19,07,44,164,18*73
$GPGSV,4,2,13,02,43,288,24,23,36,069,37,37,28,159,,08,18,181,18*70
$GPGSV,4,3,13,16,15,066,35,05,13,296,17,09,12,192,,29,07,342,33*7C
$GPGSV,4,4,13,20,06,121,*4D
$GPRMC,085705.000,A,5222.3244,N,00454.5830,E,0.21,34.92,030414,,,A*51
$GPVTG,34.92,T,,M,0.21,N,0.39,K,A*08
$GPGGA,085706.000,5222.3245,N,00454.5832,E,1,8,0.87,14.6,M,47.0,M,,*69
$GPGSA,A,3,02,16,08,23,13,05,29,07,,,,,1.19,0.87,0.81*0A
$GPRMC,085706.000,A,5222.3245,N,00454.5832,E,0.25,34.92,030414,,,A*55
$GPVTG,34.92,T,,M,0.25,N,0.46,K,A*04
$GPGGA,085707.000,5222.3247,N,00454.5833,E,1,8,0.87,14.6,M,47.0,M,,*6B
$GPGSA,A,3,02,16,08,23,13,05,29,07,,,,,1.19,0.87,0.81*0A
$GPRMC,085707.000,A,5222.3247,N,00454.5833,E,0.63,17.02,030414,,,A*5D
$GPVTG,17.02,T,,M,0.63,N,1.16,K,A*0A
$GPGGA,085708.000,5222.3248,N,00454.5835,E,1,8,0.87,14.7,M,47.0,M,,*6C
$GPGSA,A,3,02,16,08,23,13,05,29,07,,,,,1.19,0.87,0.81*0A
$GPRMC,085708.000,A,5222.3248,N,00454.5835,E,0.90,19.79,030414,,,A*55
$GPVTG,19.79,T,,M,0.90,N,1.68,K,A*0D
$GPGGA,085709.000,5222.3248,N,00454.5836,E,1,8,0.87,14.7,M,47.0,M,,*6E
$GPGSA,A,3,02,16,08,23,13,05,29,07,,,,,1.19,0.87,0.81*0A
$GPRMC,085709.000,A,5222.3248,N,00454.5836,E,0.89,20.98,030414,,,A*5A
$GPVTG,20.98,T,,M,0.89,N,1.65,K,A*0D
$GPGGA,085710.000,5222.3247,N,00454.5838,E,1,8,0.87,14.7,M,47.0,M,,*67
$GPGSA,A,3,02,16,08,23,13,05,29,07,,,,,1.19,0.87,0.81*0A
$GPGSV,4,1,13,13,72,067,37,10,70,285,25,04,46,216,20,07,44,164,18*7E
$GPGSV,4,2,13,02,43,288,22,23,36,069,37,39,27,154,,08,18,181,17*75
$GPGSV,4,3,13,16,15,065,34,05,13,296,17,09,12,192,,29,07,342,32*7F
$GPGSV,4,4,13,20,06,121,*4D
$GPRMC,085710.000,A,5222.3247,N,00454.5838,E,0.86,22.03,030414,,,A*5C
$GPVTG,22.03,T,,M,0.86,N,1.59,K,A*0D
$GPGGA,085711.000,5222.3248,N,00454.5839,E,1,8,0.87,14.8,M,47.0,M,,*67
$GPGSA,A,3,02,16,08,23,13,05,29,07,,,,,1.19,0.87,0.81*0A
$GPRMC,085711.000,A,5222.3248,N,00454.5839,E,0.85,23.23,030414,,,A*53
$GPVTG,23.23,T,,M,0.85,N,1.57,K,A*03
$GPGGA,085712.000,5222.3249,N,00454.5841,E,1,8,0.87,14.8,M,47.0,M,,*6A
$GPGSA,A,3,02,16,08,23,13,05,29,07,,,,,1.19,0.87,0.81*0A
$GPRMC,085712.000,A,5222.3249,N,00454.5841,E,0.84,24.41,030414,,,A*5C
$GPVTG,24.41,T,,M,0.84,N,1.55,K,A*03
$GPGGA,085713.000,5222.3249,N,00454.5844,E,1,8,0.87,14.8,M,47.0,M,,*6E
$GPGSA,A,3,02,16,08,23,13,05,29,07,,,,,1.19,0.87,0.81*0A
$GPRMC,085713.000,A,5222.3249,N,00454.5844,E,0.79,44.15,030414,,,A*5D
$GPVTG,44.15,T,,M,0.79,N,1.47,K,A*05
$GPGGA,085714.000,5222.3248,N,00454.5845,E,1,8,0.87,14.9,M,47.0,M,,*68
$GPGSA,A,3,02,16,08,23,13,05,29,07,,,,,1.19,0.87,0.81*0A
$GPRMC,085714.000,A,5222.3248,N,00454.5845,E,0.63,41.71,030414,,,A*56
$GPVTG,41.71,T,,M,0.63,N,1.17,K,A*0C
$GPGGA,085715.000,5222.3248,N,00454.5847,E,1,8,0.87,14.9,M,47.0,M,,*6B
$GPGSA,A,3,02,16,08,23,13,05,29,07,,,,,1.19,0.87,0.81*0A
$GPGSV,4,1,13,13,72,067,37,10,70,285,25,04,46,216,24,07,44,164,17*75
$GPGSV,4,2,13,02,43,288,20,23,36,069,37,39,27,154,,08,18,181,18*78
$GPGSV,4,3,13,16,15,065,35,05,13,296,18,09,12,192,,29,07,342,34*77
$GPGSV,4,4,13,20,06,121,*4D
$GPRMC,085715.000,A,5222.3248,N,00454.5847,E,0.79,41.07,030414,,,A*5F
$GPVTG,41.07,T,,M,0.79,N,1.47,K,A*03
$GPGGA,085716.000,5222.3249,N,00454.5849,E,1,8,0.87,15.0,M,47.0,M,,*6F
$GPGSA,A,3,02,16,08,23,13,05,29,07,,,,,1.19,0.87,0.81*0A
$GPRMC,085716.000,A,5222.3249,N,00454.5849,E,1.14,39.56,030414,,,A*52
$GPVTG,39.56,T,,M,1.14,N,2.12,K,A*01
$GPGGA,085717.000,5222.3248,N,00454.5849,E,1,8,0.87,15.0,M,47.0,M,,*6F
$GPGSA,A,3,02,16,08,23,13,05,29,07,,,,,1.19,0.87,0.81*0A
$GPRMC,085717.000,A,5222.3248,N,00454.5849,E,1.08,39.01,030414,,,A*5D
$GPVTG,39.01,T,,M,1.08,N,2.01,K,A*0C
$GPGGA,085718.000,5222.3248,N,00454.5849,E,1,8,0.87,15.1,M,47.0,M,,*61
$GPGSA,A,3,02,16,08,23,13,05,29,07,,,,,1.19,0.87,0.81*0A
$GPRMC,085718.000,A,5222.3248,N,00454.5849,E,0.68,25.75,030414,,,A*5B
$GPVTG,25.75,T,,M,0.68,N,1.26,K,A*03
$GPGGA,085719.000,5222.3245,N,00454.5846,E,1,8,0.87,15.1,M,47.0,M,,*62
$GPGSA,A,3,02,16,08,23,13,05,29,07,,,,,1.19,0.87,0.81*0A
$GPRMC,085719.000,A,5222.3245,N,00454.5846,E,0.32,25.75,030414,,,A*57
$GPVTG,25.75,T,,M,0.32,N,0.59,K,A*05
$GPGGA,085720.000,5222.3241,N,00454.5844,E,1,8,0.87,15.2,M,47.0,M,,*6D
$GPGSA,A,3,02,16,08,23,13,05,29,07,,,,,1.19,0.87,0.81*0A
$GPGSV,4,1,13,13,72,067,37,10,70,285,25,04,46,216,25,07,44,164,17*74
$GPGSV,4,2,13,02,43,288,20,23,36,069,37,33,27,205,,08,18,181,18*75
$GPGSV,4,3,13,16,15,065,36,05,13,296,19,09,12,192,,29,07,342,35*74
$GPGSV,4,4,13,20,06,121,*4D
$GPRMC,085720.000,A,5222.3241,N,00454.5844,E,0.25,25.75,030414,,,A*5D
$GPVTG,25.75,T,,M,0.25,N,0.46,K,A*0D
$GPGGA,085721.000,5222.3239,N,00454.5844,E,1,8,0.87,15.2,M,47.0,M,,*63
$GPGSA,A,3,02,16,08,23,13,05,29,07,,,,,1.19,0.87,0.81*0A
$GPRMC,085721.000,A,5222.3239,N,00454.5844,E,0.07,25.75,030414,,,A*53
$GPVTG,25.75,T,,M,0.07,N,0.12,K,A*0C
$GPGGA,085722.000,5222.3238,N,00454.5843,E,1,8,0.87,15.2,M,47.0,M,,*66
$GPGSA,A,3,02,16,08,23,13,05,29,07,,,,,1.19,0.87,0.81*0A
$GPRMC,085722.000,A,5222.3238,N,00454.5843,E,0.09,25.75,030414,,,A*58
$GPVTG,25.75,T,,M,0.09,N,0.16,K,A*06
$GPGGA,085723.000,5222.3238,N,00454.5843,E,1,8,0.87,15.2,M,47.0,M,,*67
$GPGSA,A,3,02,16,08,23,13,05,29,07,,,,,1.19,0.87,0.81*0A
$GPRMC,085723.000,A,5222.3238,N,00454.5843,E,0.13,25.75,030414,,,A*52
$GPVTG,25.75,T,,M,0.13,N,0.24,K,A*0C
$GPGGA,085724.000,5222.3238,N,00454.5842,E,1,8,0.87,15.2,M,47.0,M,,*61
$GPGSA,A,3,02,16,08,23,13,05,29,07,,,,,1.19,0.87,0.81*0A
$GPRMC,085724.000,A,5222.3238,N,00454.5842,E,0.08,25.75,030414,,,A*5E
$GPVTG,25.75,T,,M,0.08,N,0.15,K,A*04
$GPGGA,085725.000,5222.3238,N,00454.5843,E,1,8,0.87,15.2,M,47.0,M,,*61
$GPGSA,A,3,02,16,08,23,13,05,29,07,,,,,1.19,0.87,0.81*0A
$GPGSV,4,1,13,13,72,067,37,10,70,285,20,04,46,216,23,07,44,164,15*75
$GPGSV,4,2,13,02,43,288,18,23,36,069,37,33,27,205,,08,18,181,18*7E
$GPGSV,4,3,13,16,15,065,36,05,13,296,18,09,12,192,,29,07,342,35*75
$GPGSV,4,4,13,20,06,121,*4D
$GPRMC,085725.000,A,5222.3238,N,00454.5843,E,0.14,25.75,030414,,,A*53
$GPVTG,25.75,T,,M,0.14,N,0.25,K,A*0A
$GPGGA,085726.000,5222.3238,N,00454.5843,E,1,7,1.10,15.3,M,47.0,M,,*63
$GPGSA,A,3,02,16,23,13,05,29,07,,,,,,1.41,1.10,0.87*06
$GPRMC,085726.000,A,5222.3238,N,00454.5843,E,0.14,25.75,030414,,,A*50
$GPVTG,25.75,T,,M,0.14,N,0.26,K,A*09
$GPGGA,085727.000,5222.3237,N,00454.5843,E,1,7,1.10,15.3,M,47.0,M,,*6D
$GPGSA,A,3,02,16,23,13,05,29,07,,,,,,1.41,1.10,0.87*06
$GPRMC,085727.000,A,5222.3237,N,00454.5843,E,0.16,25.75,030414,,,A*5C
$GPVTG,25.75,T,,M,0.16,N,0.30,K,A*0C
$GPGGA,085728.000,5222.3237,N,00454.5843,E,1,7,1.10,15.3,M,47.0,M,,*62
$GPGSA,A,3,02,16,23,13,05,29,07,,,,,,1.41,1.10,0.87*06
$GPRMC,085728.000,A,5222.3237,N,00454.5843,E,0.36,25.75,030414,,,A*51
$GPVTG,25.75,T,,M,0.36,N,0.67,K,A*0C
$GPGGA,085729.000,5222.3236,N,00454.5843,E,1,8,0.87,15.3,M,47.0,M,,*62
$GPGSA,A,3,02,16,08,23,13,05,29,07,,,,,1.19,0.87,0.81*0A
$GPRMC,085729.000,A,5222.3236,N,00454.5843,E,0.28,25.75,030414,,,A*5E
$GPVTG,25.75,T,,M,0.28,N,0.53,K,A*04
$GPGGA,085730.000,5222.3235,N,00454.5842,E,1,8,0.87,15.3,M,47.0,M,,*68
$GPGSA,A,3,02,16,08,23,13,05,29,07,,,,,1.19,0.87,0.81*0A
$GPGSV,4,1,13,13,72,067,37,10,70,285,20,04,46,216,24,07,44,164,21*75
$GPGSV,4,2,13,02,43,288,21,23,36,069,38,08,18,181,18,16,15,065,35*7F
$GPGSV,4,3,13,05,13,296,18,09,12,192,17,40,09,115,,29,07,342,35*7E
$GPGSV,4,4,13,20,06,121,*4D
$GPRMC,085730.000,A,5222.3235,N,00454.5842,E,0.24,25.75,030414,,,A*58
$GPVTG,25.75,T,,M,0.24,N,0.45,K,A*0F
$GPGGA,085731.000,5222.3234,N,00454.5843,E,1,8,0.87,15.3,M,47.0,M,,*69
$GPGSA,A,3,02,16,08,23,13,05,29,07,,,,,1.19,0.87,0.81*0A
$GPRMC,085731.000,A,5222.3234,N,00454.5843,E,0.28,25.75,030414,,,A*55
$GPVTG,25.75,T,,M,0.28,N,0.52,K,A*05
$GPGGA,085732.000,5222.3234,N,00454.5844,E,1,8,0.87,15.3,M,47.0,M,,*6D
$GPGSA,A,3,02,16,08,23,13,05,29,07,,,,,1.19,0.87,0.81*0A
$GPRMC,085732.000,A,5222.3234,N,00454.5844,E,0.21,25.75,030414,,,A*58
$GPVTG,25.75,T,,M,0.21,N,0.39,K,A*01
$GPGGA,085733.000,5222.3233,N,00454.5842,E,1,8,0.87,15.3,M,47.0,M,,*6D
$GPGSA,A,3,02,16,08,23,13,05,29,07,,,,,1.19,0.87,0.81*0A
$GPRMC,085733.000,A,5222.3233,N,00454.5842,E,0.44,25.75,030414,,,A*5B
$GPVTG,25.75,T,,M,0.44,N,0.82,K,A*02
$GPGGA,085734.000,5222.3234,N,00454.5842,E,1,8,0.89,15.3,M,47.0,M,,*63
$GPGSA,A,3,02,16,08,23,13,05,29,07,,,,,1.66,0.89,1.40*00
$GPRMC,085734.000,A,5222.3234,N,00454.5842,E,0.41,25.75,030414,,,A*5E
$GPVTG,25.75,T,,M,0.41,N,0.75,K,A*0F
$GPGGA,085735.000,5222.3235,N,00454.5841,E,1,8,0.89,15.3,M,47.0,M,,*60
$GPGSA,A,3,02,16,08,23,13,05,29,07,,,,,1.66,0.89,1.40*00
$GPGSV,4,1,13,13,72,067,36,10,71,285,17,04,46,216,21,07,44,164,20*75
$GPGSV,4,2,13,02,43,288,21,23,36,069,38,08,19,181,19,16,15,065,35*7F
$GPGSV,4,3,13,05,13,296,17,09,12,192,14,40,09,115,,29,07,342,34*73
$GPGSV,4,4,13,20,06,121,*4D
$GPRMC,085735.000,A,5222.3235,N,00454.5841,E,0.24,25.75,030414,,,A*5E
$GPVTG,25.75,T,,M,0.24,N,0.44,K,A*0E
$GPGGA,085736.000,5222.3235,N,00454.5840,E,1,8,0.87,15.3,M,47.0,M,,*6C
$GPGSA,A,3,02,16,08,23,13,05,29,07,,,,,1.19,0.87,0.81*0A
$GPRMC,085736.000,A,5222.3235,N,00454.5840,E,0.39,25.75,030414,,,A*50
$GPVTG,25.75,T,,M,0.39,N,0.72,K,A*07
$GPGGA,085737.000,5222.3234,N,00454.5839,E,1,8,0.87,15.3,M,47.0,M,,*62
$GPGSA,A,3,02,16,08,23,13,05,29,07,,,,,1.19,0.87,0.81*0A
$GPRMC,085737.000,A,5222.3234,N,00454.5839,E,0.32,25.75,030414,,,A*55
$GPVTG,25.75,T,,M,0.32,N,0.60,K,A*0F
$GPGGA,085738.000,5222.3234,N,00454.5838,E,1,8,0.87,15.3,M,47.0,M,,*6C
$GPGSA,A,3,02,16,08,23,13,05,29,07,,,,,1.19,0.87,0.81*0A
$GPRMC,085738.000,A,5222.3234,N,00454.5838,E,0.38,25.75,030414,,,A*51
$GPVTG,25.75,T,,M,0.38,N,0.71,K,A*05
$GPGGA,085739.000,5222.3233,N,00454.5836,E,1,8,0.87,15.3,M,47.0,M,,*64
$GPGSA,A,3,02,16,08,23,13,05,29,07,,,,,1.19,0.87,0.81*0A
$GPRMC,085739.000,A,5222.3233,N,00454.5836,E,0.44,25.75,030414,,,A*52
$GPVTG,25.75,T,,M,0.44,N,0.81,K,A*01
$GPGGA,085740.000,5222.3232,N,00454.5835,E,1,8,0.87,15.3,M,47.0,M,,*68
$GPGSA,A,3,02,16,08,23,13,05,29,07,,,,,1.19,0.87,0.81*0A
$GPGSV,4,1,13,13,72,067,36,10,71,285,16,04,46,216,22,07,44,164,18*7C
$GPGSV,4,2,13,02,43,288,22,23,36,069,37,08,19,181,19,16,15,065,34*72
$GPGSV,4,3,13,05,13,296,15,09,12,192,17,44,08,114,,29,07,342,34*76
$GPGSV,4,4,13,20,06,121,*4D
$GPRMC,085740.000,A,5222.3232,N,00454.5835,E,0.42,25.75,030414,,,A*58
$GPVTG,25.75,T,,M,0.42,N,0.77,K,A*0E
$GPGGA,085741.000,5222.3231,N,00454.5834,E,1,8,0.87,15.3,M,47.0,M,,*6B
$GPGSA,A,3,02,16,08,23,13,05,29,07,,,,,1.19,0.87,0.81*0A
$GPRMC,085741.000,A,5222.3231,N,00454.5834,E,0.33,25.75,030414,,,A*5D
$GPVTG,25.75,T,,M,0.33,N,0.62,K,A*0C
$GPGGA,085742.000,5222.3231,N,00454.5834,E,1,8,0.87,15.3,M,47.0,M,,*68
$GPGSA,A,3,02,16,08,23,13,05,29,07,,,,,1.19,0.87,0.81*0A
$GPRMC,085742.000,A,5222.3231,N,00454.5834,E,0.47,25.75,030414,,,A*5D
$GPVTG,25.75,T,,M,0.47,N,0.86,K,A*05
$GPGGA,085743.000,5222.3229,N,00454.5833,E,1,8,0.87,15.3,M,47.0,M,,*67
